{
"type": "FeatureCollection",
"name": "brewery_point_locations",
"crs": { "type": "name", "properties": { "name": "urn:ogc:def:crs:OGC:1.3:CRS84" } },
"features": [
{ "type": "Feature", "properties": { "fid": 1, "name": "Siluria Brewing", "contact": "145 First Avenue W, Alibaster AL, (205)624-3037, www.siluriabrewing.com, Tue-Wed 5-9pm, Thu 4-10pm, Fri 4-11pm, Sat 1-11pm", "counter": 1 }, "geometry": { "type": "Point", "coordinates": [ -86.82, 33.24 ] } },
{ "type": "Feature", "properties": { "fid": 2, "name": "Cheaha Brewing", "contact": "1208 Walnut Ave, Anniston AL, (256)770-7300, www.cheahabrewingcompany.com\/, (Closed?)Sun-Wed 11:00am-10:00pm, Thu 11:00am-11:00pm, Fri-Sat 11:00am-midnight", "counter": 1 }, "geometry": { "type": "Point", "coordinates": [ -85.83, 33.66 ] } },
{ "type": "Feature", "properties": { "fid": 3, "name": "Patriot Joe's Ales", "contact": "8896 McClellan Blvd, Anniston AL, (256)405-4366, Mon-Wed 4:00pm-midnight, Thu-Fri 4:00pm-2:00am, Sat 11:00am-2:00am", "counter": 1 }, "geometry": { "type": "Point", "coordinates": [ -85.78, 33.76 ] } },
{ "type": "Feature", "properties": { "fid": 4, "name": "Olde Auburn Ale House", "contact": "124 Tichenor Avenue, Auburn AL, (334)821-6773, No Longer Brewing?, Mon-Sat 3:30pm-Close", "counter": 1 }, "geometry": { "type": "Point", "coordinates": [ -85.48, 32.61 ] } },
{ "type": "Feature", "properties": { "fid": 5, "name": "Southern Farmhouse Ales", "contact": "Auburn AL, (334)703-9925, www.southernfarmhouse.com\/, Call", "counter": 1 }, "geometry": { "type": "Point", "coordinates": [ -85.48, 32.61 ] } },
{ "type": "Feature", "properties": { "fid": 6, "name": "5 Pts. Brewing", "contact": "1312 20th Street S, Birmingham AL, (205)939-1312, Call", "counter": 1 }, "geometry": { "type": "Point", "coordinates": [ -86.8, 33.5 ] } },
{ "type": "Feature", "properties": { "fid": 7, "name": "Avondale Brewing", "contact": "201 41st St South, Birmingham AL, (205)203-4546, www.avondalebrewing.com\/, Mon-Wed 4-10pm, Thu 4-11pm, Fri 3pm-12:30am, Sat Noon-12:30am, Sun 1-10pm", "counter": 1 }, "geometry": { "type": "Point", "coordinates": [ -86.77, 33.52 ] } },
{ "type": "Feature", "properties": { "fid": 8, "name": "Beer Engineers", "contact": "112 14th St South, Birmingham AL, (205)677-8024, beer-engineers.com\/, Closed?", "counter": 1 }, "geometry": { "type": "Point", "coordinates": [ -86.81, 33.51 ] } },
{ "type": "Feature", "properties": { "fid": 9, "name": "Birmingham District Brewing", "contact": "2201 Second Avenue S, Birmingham AL, www.birminghamdistrictbrewing.com, Planned", "counter": 1 }, "geometry": { "type": "Point", "coordinates": [ -86.8, 33.51 ] } },
{ "type": "Feature", "properties": { "fid": 10, "name": "Cahaba Brewing", "contact": "4500 5th Ave S, Birmingham AL, (205)578-2616, www.cahababrewing.com\/, Mon-Thu 3:00pm-10:00pm, Fri-Sat noon-midnight, Sun noon-8:00pm", "counter": 1 }, "geometry": { "type": "Point", "coordinates": [ -86.76, 33.53 ] } },
{ "type": "Feature", "properties": { "fid": 11, "name": "Ghost Train Brewing", "contact": "2616 Third Ave South, Birmingham AL, (205)201-5817, www.ghosttrainbrewing.com, Mon-Wed noon-10pm, Thu-Sat noon-midnight, Sun noon-8pm", "counter": 1 }, "geometry": { "type": "Point", "coordinates": [ -86.79, 33.51 ] } },
{ "type": "Feature", "properties": { "fid": 12, "name": "Good People Brewing Co", "contact": "114 14th Street South, Birmingham AL, (205)588-8002, www.goodpeoplebrewing.com\/, Tue-Fri 3pm-10pm, Sat 1pm-10pm, Sun 1pm-4pm", "counter": 1 }, "geometry": { "type": "Point", "coordinates": [ -86.81, 33.51 ] } },
{ "type": "Feature", "properties": { "fid": 13, "name": "Emerald Coast Beer Co", "contact": "Birmingham AL, (205)202-9311, Call", "counter": 1 }, "geometry": { "type": "Point", "coordinates": [ -86.81, 33.52 ] } },
{ "type": "Feature", "properties": { "fid": 14, "name": "Hubcap Brewery and Kitchen", "contact": "Birmingham AL, Planned", "counter": 1 }, "geometry": { "type": "Point", "coordinates": [ -86.85, 33.41 ] } },
{ "type": "Feature", "properties": { "fid": 15, "name": "Monday Night Brewing", "contact": "1143 First Ave S, Birmingham AL, mondaynightbrewing.com\/, Planned", "counter": 1 }, "geometry": { "type": "Point", "coordinates": [ -86.82, 33.51 ] } },
{ "type": "Feature", "properties": { "fid": 16, "name": "The Grocery Brewpub", "contact": "2823 Central Ave #107, Birmingham AL, (205)637-0990, www.thegrocerybrewpub.com, Sun-Thu 11am-10pm, Fri-Sat 11am-midnight", "counter": 1 }, "geometry": { "type": "Point", "coordinates": [ -86.79, 33.48 ] } },
{ "type": "Feature", "properties": { "fid": 17, "name": "Trim Tab Brewing", "contact": "2721 Fifth Ave South, Birmingham AL, (205)703-0536, trimtabbrewing.com\/, Mon-Thu 4-10pm, Fri 3pm-midnight, Sat 1pm-midnight, Sun 2-8pm", "counter": 1 }, "geometry": { "type": "Point", "coordinates": [ -86.79, 33.51 ] } },
{ "type": "Feature", "properties": { "fid": 18, "name": "Blue Moose Cafe & Brewpub", "contact": "216 First Avenue SE, Cullman AL, (256)734-0837, Call", "counter": 1 }, "geometry": { "type": "Point", "coordinates": [ -86.84, 34.18 ] } },
{ "type": "Feature", "properties": { "fid": 19, "name": "Goat Island Brewing", "contact": "1646 John H Cooper Dr SE, Cullman AL, goatislandbrewing.com, Thu 5:00pm-9:00pm, Fri 5:00pm-10:00pm, Sat 3:00pm-10:00pm", "counter": 1 }, "geometry": { "type": "Point", "coordinates": [ -86.82, 34.14 ] } },
{ "type": "Feature", "properties": { "fid": 20, "name": "Cross-Eyed Owl Brewing", "contact": "105 1st Avenue NE, Decatur AL, www.xeobrewing.com, Mon-Fri 4-10pm, Sat 11am-10pm, Sun noon-6pm", "counter": 1 }, "geometry": { "type": "Point", "coordinates": [ -86.99, 34.6 ] } },
{ "type": "Feature", "properties": { "fid": 21, "name": "Folklore Brewing and Meadery", "contact": "153 Mary Lou Lane, Dotham AL, (334)702-2337, www.folklorebrewing.com\/, Fri-Sat 3:00pm-11:00pm", "counter": 1 }, "geometry": { "type": "Point", "coordinates": [ -85.39, 31.15 ] } },
{ "type": "Feature", "properties": { "fid": 22, "name": "Fairhope Brewing", "contact": "914 Nichols Ave, Fairhope AL, (251)279-7517, www.fairhopebrewing.com\/, Tue-Thu 4:00pm-10:00pm, Fri 2:00pm-10:00pm, Sat noon-10:00pm, Sun 2:00pm-7:00pm", "counter": 1 }, "geometry": { "type": "Point", "coordinates": [ -87.88, 30.52 ] } },
{ "type": "Feature", "properties": { "fid": 23, "name": "Bluewater Brewing Co", "contact": "318 South Royal Ave, Florence AL, (256)702-4799 or (256)648-7334, (Closed?)Tue 2:30pm-9pm, Wed-Fri 4:30pm-9pm", "counter": 1 }, "geometry": { "type": "Point", "coordinates": [ -87.66, 34.8 ] } },
{ "type": "Feature", "properties": { "fid": 24, "name": "Singin' River Brewing", "contact": "526 East College St, Florence AL, www.singinriverbrewing.com\/, Tue 5:00pm-8:00pm, Thu-Fri 5:00pm-9:00pm, Sat 2:00pm-9:00pm", "counter": 1 }, "geometry": { "type": "Point", "coordinates": [ -87.67, 34.8 ] } },
{ "type": "Feature", "properties": { "fid": 25, "name": "Back Forty Beer Co", "contact": "200 North 6th St, Gadsden AL, (256)467-4912, backfortybeer.com\/, Mon-Fri 5:00pm-7:00pm, Sat 3:00pm-8:00pm", "counter": 1 }, "geometry": { "type": "Point", "coordinates": [ -86.01, 34.02 ] } },
{ "type": "Feature", "properties": { "fid": 26, "name": "Big Beach Brewing Co", "contact": "300 E 24th St, Gulf Shores AL, (251)948-2337, www.bigbeachbrewing.com, Sun-Thu 11am-10pm, Fri-Sat 11am-midnight", "counter": 1 }, "geometry": { "type": "Point", "coordinates": [ -87.68, 30.28 ] } },
{ "type": "Feature", "properties": { "fid": 27, "name": "Main Channel Brewing", "contact": "2090 Gunter Ave, Guntersville AL, (256)960-5070, www.facebook.com\/MainChannel, Call", "counter": 1 }, "geometry": { "type": "Point", "coordinates": [ -86.31, 34.34 ] } },
{ "type": "Feature", "properties": { "fid": 28, "name": "Red Hills Brewing", "contact": "2823 Central Ave #107, Homewood AL, (205)582-2897, www.redhillsbrew.com, Mon-Thu 4-10pm, Fri 4pm-midnight, Sat noon-midnight, Sun noon-10pm", "counter": 1 }, "geometry": { "type": "Point", "coordinates": [ -86.79, 33.48 ] } },
{ "type": "Feature", "properties": { "fid": 29, "name": "Below the Radar Brewing", "contact": "220 Holmes Ave NE, Huntsville AL, (256)469-6617, www.btrbeer.com\/, Mon-Thu 11:00am-10:00pm, Fri 11:00am-midnight, Sat 9:00am-midnight, Sun 9:00am-10:00pm", "counter": 1 }, "geometry": { "type": "Point", "coordinates": [ -86.59, 34.73 ] } },
{ "type": "Feature", "properties": { "fid": 30, "name": "Chandler's Ford Brewing", "contact": "4024 Lucerne Dr, Huntsville AL, (256)457-6999, Call", "counter": 1 }, "geometry": { "type": "Point", "coordinates": [ -86.55, 34.7 ] } },
{ "type": "Feature", "properties": { "fid": 31, "name": "Fractal Brewing Project", "contact": "3200 Leeman Ferry Rd SW, Huntsville AL, (256)489-5520, fractalbrewing.com\/, Mon-Thu 2-10pm, Fri-Sat noon-11pm, Sun noon-10pm", "counter": 1 }, "geometry": { "type": "Point", "coordinates": [ -86.59, 34.69 ] } },
{ "type": "Feature", "properties": { "fid": 32, "name": "Green Bus Brewing", "contact": "206 Eustis Ave, Huntsville AL, (256)990-2477, greenbusbrewing.com\/, Thu 3:00pm-10:00pm, Fri 3:00pm-11pm, Sat noon-11:00pm, Sun noon-9:00pm", "counter": 1 }, "geometry": { "type": "Point", "coordinates": [ -86.58, 34.73 ] } },
{ "type": "Feature", "properties": { "fid": 33, "name": "Huntsville Brewery", "contact": "801 Franklin St, Huntsville AL, (256)469-6743, (Closed?) Open daily 10:30am-1:00am", "counter": 1 }, "geometry": { "type": "Point", "coordinates": [ -86.58, 34.72 ] } },
{ "type": "Feature", "properties": { "fid": 34, "name": "Inner Space Brewing", "contact": "2414 Clinton Ave W, Huntsville AL, (256)489-5599, www.innerspacebrewing.com, Thu-Fri 4:00pm-10:00pm, Sat 3:00pm-10:00pm", "counter": 1 }, "geometry": { "type": "Point", "coordinates": [ -86.6, 34.72 ] } },
{ "type": "Feature", "properties": { "fid": 35, "name": "Mad Malts", "contact": "109 Maple Ave NW, Huntsville AL, (256)489-5325, www.facebook.com\/madmaltsbrewing, Thu-Sat 5:00pm-9:00pm", "counter": 1 }, "geometry": { "type": "Point", "coordinates": [ -86.59, 34.75 ] } },
{ "type": "Feature", "properties": { "fid": 36, "name": "Old Black Bear Brewing", "contact": "201 East Side Square #11, Huntsville AL, (256)226-1032, www.oldblackbear.com\/, Tue-Sun 11am-11pm", "counter": 1 }, "geometry": { "type": "Point", "coordinates": [ -86.58, 34.73 ] } },
{ "type": "Feature", "properties": { "fid": 37, "name": "Olde Towne Brewing", "contact": "3200 Leeman Ferry Rd, Huntsville AL, (256)564-7404, www.oldetownebeer.com\/, Closed?, Call", "counter": 1 }, "geometry": { "type": "Point", "coordinates": [ -86.59, 34.69 ] } },
{ "type": "Feature", "properties": { "fid": 38, "name": "Salty Nut Brewery", "contact": "2406 Clinton Ave W, Huntsville AL, (256)425-5204, www.saltynutbrewery.com\/, Wed-Fri 4:30-9pm, Sat 3-9pm", "counter": 1 }, "geometry": { "type": "Point", "coordinates": [ -86.64, 34.74 ] } },
{ "type": "Feature", "properties": { "fid": 39, "name": "Straight to Ale", "contact": "3200 Leeman Ferry Road, Huntsville AL, (256)489-0280, www.straighttoale.com\/, Open Daily 3:00pm-10:00pm", "counter": 1 }, "geometry": { "type": "Point", "coordinates": [ -86.59, 34.69 ] } },
{ "type": "Feature", "properties": { "fid": 40, "name": "Straight to Ale-Campus 805", "contact": "2610 Clinton Ave, Huntsville AL, (256)801-9650, straighttoale.com\/, Open Daily 3:00pm-10:00pm", "counter": 1 }, "geometry": { "type": "Point", "coordinates": [ -86.61, 34.72 ] } },
{ "type": "Feature", "properties": { "fid": 41, "name": "Yellowhammer Brewery", "contact": "2600 Clinton Avenue West, Huntsville AL, (256)489-3510, www.yellowhammerbrewery.com\/, Mon-Wed 11:00am-9:00pm, Thu-Sat 11:00am-11:00pm, Sun 11:00am-8:00pm", "counter": 1 }, "geometry": { "type": "Point", "coordinates": [ -86.6, 34.72 ] } },
{ "type": "Feature", "properties": { "fid": 42, "name": "Joe Beer Hand Crafted Ales", "contact": "16 Public Square West #1, Jacksonville AL, (256)365-1245, Mon-Tue 4:00pm-7:00pm, Wed-Thu 4:00pm-9:00pm, Fri 5:00pm-1:00am, Sat 4:00pm-1:00am", "counter": 1 }, "geometry": { "type": "Point", "coordinates": [ -85.76, 33.81 ] } },
{ "type": "Feature", "properties": { "fid": 43, "name": "Tallulah Brewing", "contact": "1804 4th Avenue S, Jasper AL, (205)530-8555, www.tallulahbrewing.com, Thu 5-11pm, Fri 4pm-midnight, Sat noon-midnight", "counter": 1 }, "geometry": { "type": "Point", "coordinates": [ -87.28, 33.83 ] } },
{ "type": "Feature", "properties": { "fid": 44, "name": "Twisted Barley Brewing Co", "contact": "590 19th Street N, Jasper AL, twistedbarley.blogspot.com\/, Thu 4-10pm, Fri-Sat noon-midnight", "counter": 1 }, "geometry": { "type": "Point", "coordinates": [ -87.27, 33.83 ] } },
{ "type": "Feature", "properties": { "fid": 45, "name": "Blue Pants Brewery", "contact": "500-A Lanier Rd, Madison AL, (256)325-1131, www.bluepantsbrew.com\/, (Closed?)Mon-Thu 3:00pm-10:00pm, Fri-Sat 3:00pm-midnight", "counter": 1 }, "geometry": { "type": "Point", "coordinates": [ -86.74, 34.69 ] } },
{ "type": "Feature", "properties": { "fid": 46, "name": "Madison Station Brewery & Cafe", "contact": "214 Main Street, Madison AL, Planned", "counter": 1 }, "geometry": { "type": "Point", "coordinates": [ -86.75, 34.69 ] } },
{ "type": "Feature", "properties": { "fid": 47, "name": "Old Black Bear Brewing", "contact": "212 Main St, Madison AL, (256)226-1032, www.oldblackbear.com\/, Tue-Sat 11am-11pm, Sun 10am-11pm", "counter": 1 }, "geometry": { "type": "Point", "coordinates": [ -86.75, 34.69 ] } },
{ "type": "Feature", "properties": { "fid": 48, "name": "Rocket Republic Brewing Co", "contact": "289 Production Ave, Madison AL, www.rocketrepublicbrewing.com\/, Mon-Wed 4-9pm, Thu 4-10pm, Fri 4-11pm, Sat 3-11pm, Sun 3-8pm", "counter": 1 }, "geometry": { "type": "Point", "coordinates": [ -86.77, 34.67 ] } },
{ "type": "Feature", "properties": { "fid": 49, "name": "Braided River Brewing", "contact": "420 St Louis St, Mobile AL, www.braidedriverbrewing.com\/, Planned", "counter": 1 }, "geometry": { "type": "Point", "coordinates": [ -88.05, 30.69 ] } },
{ "type": "Feature", "properties": { "fid": 50, "name": "Haint Blue Brewing Co", "contact": "806 Monroe St, Mobile AL, (251)888-1277, haintbluebrew.com\/, Thu 4-9pm, Fri-Sat 2-10pm, Sun 2-8:30pm, or call", "counter": 1 }, "geometry": { "type": "Point", "coordinates": [ -88.05, 30.68 ] } },
{ "type": "Feature", "properties": { "fid": 51, "name": "Hurricane Brewing Company", "contact": "225 Dauphin St, Mobile AL, (251)445-2544, Closed?, Open Mon-Sat 11:00am-Late", "counter": 1 }, "geometry": { "type": "Point", "coordinates": [ -88.04, 30.69 ] } },
{ "type": "Feature", "properties": { "fid": 52, "name": "Iron Hand Brewing Co", "contact": "206 State St, Mobile AL, (850)723-1786, www.facebook.com\/ironhandbrewing, Planned", "counter": 1 }, "geometry": { "type": "Point", "coordinates": [ -88.05, 30.7 ] } },
{ "type": "Feature", "properties": { "fid": 53, "name": "Old Majestic Brewing", "contact": "656 Saint Louis St, Mobile AL, (251)434-7387, www.oldmajesticbrewing.com, Call", "counter": 1 }, "geometry": { "type": "Point", "coordinates": [ -88.05, 30.69 ] } },
{ "type": "Feature", "properties": { "fid": 54, "name": "Serda Brewing", "contact": "600 Government St, Mobile AL, serdabrewing.com\/, Mon-Thu 4-10pm, Fri 4-11pm, Sat noon-11pm, Sun noon-10pm", "counter": 1 }, "geometry": { "type": "Point", "coordinates": [ -88.05, 30.69 ] } },
{ "type": "Feature", "properties": { "fid": 55, "name": "Common Bond Brewers", "contact": "424 Bibb St #150, Montgomery AL, (334)676-2287, commonbondbrewers.com\/, Wed-Thu 4-10pm, Fri-Sat noon-10pm, Sun noon-6pm", "counter": 1 }, "geometry": { "type": "Point", "coordinates": [ -86.31, 32.38 ] } },
{ "type": "Feature", "properties": { "fid": 56, "name": "Crazy Dane Brewing", "contact": "1283 Newell Parkway, Montgomery AL, (334)260-0148, www.crazydanebrewing.com\/, Call", "counter": 1 }, "geometry": { "type": "Point", "coordinates": [ -86.26, 32.41 ] } },
{ "type": "Feature", "properties": { "fid": 57, "name": "Railyard Brewing", "contact": "12 West Jefferson St, Montgomery AL, (334)262-0080, www.railyardbrewingcompany.com\/, Sun-Wed 11am-9pm, Thu-Sat 11am-10pm", "counter": 1 }, "geometry": { "type": "Point", "coordinates": [ -86.31, 32.38 ] } },
{ "type": "Feature", "properties": { "fid": 58, "name": "Red Clay Brewing Co", "contact": "704 North Railroad Ave, Opelika AL, (334)737-5409, www.redclaybrewingcompany.com, Tue-Thu 4pm-midnight, Fri 4pm-2am, Sat noon-2am", "counter": 1 }, "geometry": { "type": "Point", "coordinates": [ -85.38, 32.65 ] } },
{ "type": "Feature", "properties": { "fid": 59, "name": "Resting Pulse Brewing", "contact": "714 1st St, Opelika AL, (515)991-5424, www.restingpulsebrewing.com, Call", "counter": 1 }, "geometry": { "type": "Point", "coordinates": [ -85.38, 32.66 ] } },
{ "type": "Feature", "properties": { "fid": 60, "name": "GTs on the Bay", "contact": "26189 Canal Rd, Orange Beach AL, (251)980-8400, www.gtsonthebay.com, Sun-Thu 11am-9:30pm, Fri-Sat 11am-10pm, Sun 11am-2pm", "counter": 1 }, "geometry": { "type": "Point", "coordinates": [ -87.58, 30.29 ] } },
{ "type": "Feature", "properties": { "fid": 61, "name": "Chattahoochee Brewing", "contact": "505 13th Street, Phenix City AL, (334)559-0663, www.chattahoocheebrewingcompany.com\/, Mon-Thu 3:00pm-midnight, Fri-Sat noon-1:30am", "counter": 1 }, "geometry": { "type": "Point", "coordinates": [ -85.01, 32.45 ] } },
{ "type": "Feature", "properties": { "fid": 62, "name": "Sand Mtn. Brewery", "contact": "6221 Tammy Little Dr, Section AL, (256)418-0658, www.sandmtbrewery.com, Call", "counter": 1 }, "geometry": { "type": "Point", "coordinates": [ -86.0, 34.6 ] } },
{ "type": "Feature", "properties": { "fid": 63, "name": "Ferus Artisan Ales", "contact": "101 Beech St #111, Trussville AL, (205)508-3001, Mon-Thu 11am-10pm, Fri-Sat 11am-11pm, Sun 11am-9pm", "counter": 1 }, "geometry": { "type": "Point", "coordinates": [ -86.61, 33.62 ] } },
{ "type": "Feature", "properties": { "fid": 64, "name": "Slag Heap Brewing", "contact": "227 Main St, Trussville AL, www.slagheapbrewingcompany.com, Tue-Wed 4-10pm, Thu 4-11pm, Fri 3pm-midnight, Sat noon-midnight, Sun 1-6pm", "counter": 1 }, "geometry": { "type": "Point", "coordinates": [ -86.61, 33.62 ] } },
{ "type": "Feature", "properties": { "fid": 65, "name": "Band of Brothers Brewery", "contact": "1605 23rd Ave, Tuscaloosa AL, (205)266-5137, bandofbrosbrewing.com\/, Mon-Thu 3:00pm-10:00pm, Fri 3:00pm-11:00pm, Sat 1:00pm-11:00pm, Sun 1:00pm-9:00pm", "counter": 1 }, "geometry": { "type": "Point", "coordinates": [ -87.56, 33.2 ] } },
{ "type": "Feature", "properties": { "fid": 66, "name": "Black Warrior Brewing Co", "contact": "2216 University Blvd, Tuscaloosa AL, (205)248-7841, www.blackwarriorbrewing.com\/, Mon-Thu 4:00pm-10:00pm, Fri 3:00pm-11:00pm, Sat noon-11:00pm, Sun 3:00pm-9:00pm", "counter": 1 }, "geometry": { "type": "Point", "coordinates": [ -87.57, 33.21 ] } },
{ "type": "Feature", "properties": { "fid": 67, "name": "Druid City Brewing", "contact": "607 14th St, Tuscaloosa AL, (205)342-0051, www.druidcitybrewing.com\/, Thu-Fri 4:00pm-8:00pm, Sat-Sun 2:00pm-8:00pm", "counter": 1 }, "geometry": { "type": "Point", "coordinates": [ -87.54, 33.2 ] } },
{ "type": "Feature", "properties": { "fid": 68, "name": "49th State Brewing", "contact": "717 West 3rd Ave, Anchorage AK, (907)277-7727, www.49statebrewing.com, Open Daily 11:00am", "counter": 1 }, "geometry": { "type": "Point", "coordinates": [ -149.9, 61.22 ] } },
{ "type": "Feature", "properties": { "fid": 69, "name": "Anchorage Brewing", "contact": "717 West Third Ave, Anchorage AK, (907)360-5104, www.anchoragebrewingcompany.com\/, Wed-Sun 2-8pm", "counter": 1 }, "geometry": { "type": "Point", "coordinates": [ -149.9, 61.22 ] } },
{ "type": "Feature", "properties": { "fid": 70, "name": "Cynosure Brewing", "contact": "144-E East Potter Dr, Anchorage AK, (907)563-2966, Thu-Fri 4-8pm, Sat 2-8pm", "counter": 1 }, "geometry": { "type": "Point", "coordinates": [ -149.88, 61.17 ] } },
{ "type": "Feature", "properties": { "fid": 71, "name": "Glacier Brewhouse", "contact": "735 West Fifth Avenue #110, Anchorage AK, (907)274-2739, www.glacierbrewhouse.com\/, Mon-Fri 11:00am-11:00pm, Sat-Sun 10:00am-11:00pm", "counter": 1 }, "geometry": { "type": "Point", "coordinates": [ -149.9, 61.22 ] } },
{ "type": "Feature", "properties": { "fid": 72, "name": "Humpy's Great Alaskan Alehouse", "contact": "610 West 6th Ave, Anchorage AK, (907)276-2337, www.humpyalaska.com, Call", "counter": 1 }, "geometry": { "type": "Point", "coordinates": [ -149.89, 61.22 ] } },
{ "type": "Feature", "properties": { "fid": 73, "name": "King Street Brewing Co", "contact": "7924 King St, Anchorage AK, (907)336-5464, Mon-Fri 3-8pm, Sat Noon-8pm", "counter": 1 }, "geometry": { "type": "Point", "coordinates": [ -149.88, 61.15 ] } },
{ "type": "Feature", "properties": { "fid": 74, "name": "Midnight Sun Brewing Co.", "contact": "8111 Dimond Hook Dr, Anchorage AK, (907)344-1179, www.midnightsunbrewing.com\/, Open Daily 11:00am-8:00pm", "counter": 1 }, "geometry": { "type": "Point", "coordinates": [ -149.84, 61.15 ] } },
{ "type": "Feature", "properties": { "fid": 75, "name": "Broken Tooth Brewing", "contact": "2021 Spar Ave, Anchorage AK, (907)278-4999, brokentoothbrewing.net\/, Call", "counter": 1 }, "geometry": { "type": "Point", "coordinates": [ -149.84, 61.22 ] } },
{ "type": "Feature", "properties": { "fid": 76, "name": "Resolution Brewing", "contact": "3024 Mountain View Dr, Anchorage AK, (907)330-4523, www.resolutionbeer.com, Thu 3-8pm, Fri-Sun Noon-8pm", "counter": 1 }, "geometry": { "type": "Point", "coordinates": [ -149.82, 61.22 ] } },
{ "type": "Feature", "properties": { "fid": 77, "name": "Sleeping Lady Brewing", "contact": "717 West Third Avenue, Anchorage AK, (907)277-7727, Call", "counter": 1 }, "geometry": { "type": "Point", "coordinates": [ -149.9, 61.22 ] } },
{ "type": "Feature", "properties": { "fid": 78, "name": "Turnagain Brewing", "contact": "Anchorage AK, (907)868-2773, planned", "counter": 1 }, "geometry": { "type": "Point", "coordinates": [ -149.9, 61.22 ] } },
{ "type": "Feature", "properties": { "fid": 79, "name": "Cooper Landing Brewing", "contact": "34898 Caribou Heights Dr, Cooper Landing AK, (907)223-6101, www.cooperlandingbrewing.com, Call", "counter": 1 }, "geometry": { "type": "Point", "coordinates": [ -149.85, 60.49 ] } },
{ "type": "Feature", "properties": { "fid": 80, "name": "Alaska Pacific Brewing", "contact": "16419 Carla St, Eagle River AK, (907)230-8884, www.alaskapacificbeer.com, Planned", "counter": 1 }, "geometry": { "type": "Point", "coordinates": [ -149.58, 61.33 ] } },
{ "type": "Feature", "properties": { "fid": 81, "name": "Odd Man Rush Brewing", "contact": "10930 Mausel St, Eagle River AK, (907)696-2337, oddmanrushbrewing.com\/, Wed-Sat Noon-8pm, Sun Noon-5pm", "counter": 1 }, "geometry": { "type": "Point", "coordinates": [ -149.58, 61.32 ] } },
{ "type": "Feature", "properties": { "fid": 82, "name": "Quake! Brewing", "contact": "12812 Old Glenn Highway, A 12, Eagle River AK, (907)622-0722, www.quakebrewingcompany.com, Call", "counter": 1 }, "geometry": { "type": "Point", "coordinates": [ -149.57, 61.34 ] } },
{ "type": "Feature", "properties": { "fid": 83, "name": "Black Spruce Brewing", "contact": "3290-B Peger Road, Fairbanks AK, (907)328-0448, www.blacksprucebeer.com, Tue-Fri 3-8pm, Sat noon-8pm", "counter": 1 }, "geometry": { "type": "Point", "coordinates": [ -147.78, 64.82 ] } },
{ "type": "Feature", "properties": { "fid": 84, "name": "HooDoo Brewing", "contact": "1951 Fox Ave, Fairbanks AK, (907)459-2337, http:\/\/www.hoodoobrew.com\/, Tue-Fri 3pm-8pm, Sat 11am-8pm", "counter": 1 }, "geometry": { "type": "Point", "coordinates": [ -147.76, 64.85 ] } },
{ "type": "Feature", "properties": { "fid": 85, "name": "Midnite Mine Brewpub", "contact": "308 Wendell Ave, Fairbanks AK, (907)378-4067, Call", "counter": 1 }, "geometry": { "type": "Point", "coordinates": [ -147.71, 64.85 ] } },
{ "type": "Feature", "properties": { "fid": 86, "name": "Silver Gulch Brewing & Bottling", "contact": "2195 Old Steese Highway North, Fox AK, (907)452-2739, www.silvergulch.com\/, Winter Hours: Tue-Thu 4:00pm-10:00pm, Fri 4:00pm-11:00pm, Sat 11:00am-11:00pm, Sun 11:00am-10:00pm. Summer Hours: Tue-Thu 4:00pm-10:00pm, Fri 4:00pm-11:00pm, Sat 11:00am-11:00pm, Sun 11:00am", "counter": 1 }, "geometry": { "type": "Point", "coordinates": [ -147.63, 64.95 ] } },
{ "type": "Feature", "properties": { "fid": 87, "name": "Gakona Brewery & Supply", "contact": "Mile 0.5 Tok Cutoff Hwy, Gakona AK, (907)822-5609, www.gakonabrewing.com, Call", "counter": 1 }, "geometry": { "type": "Point", "coordinates": [ -145.3, 62.3 ] } },
{ "type": "Feature", "properties": { "fid": 88, "name": "Bald Brothers Brewing", "contact": "252 Alpina Way, Girdwood AK, Planned", "counter": 1 }, "geometry": { "type": "Point", "coordinates": [ -149.17, 60.94 ] } },
{ "type": "Feature", "properties": { "fid": 89, "name": "Haines Brewing", "contact": "108 Whitefang Way, Haines AK, (907)766-3823, hainesbrewing.com\/, Mon-Sat 1-6pm", "counter": 1 }, "geometry": { "type": "Point", "coordinates": [ -135.46, 59.23 ] } },
{ "type": "Feature", "properties": { "fid": 90, "name": "49th State Brewery", "contact": "Mile 248.4 George Parks Highway, Healy AK, (907)683-2739, 49statebrewing.com\/, Mon-Thu 4:00pm-midnight, Fri-Sat 4:00pm-2:00am, Sun 9:00am-midnight", "counter": 1 }, "geometry": { "type": "Point", "coordinates": [ -149.02, 63.86 ] } },
{ "type": "Feature", "properties": { "fid": 91, "name": "Grace Ridge Brewing", "contact": "3388 B St, Homer AK, (907)399-5222, graceridgebrewing.com\/, Tue-Thu 2-8pm, Fri-Sat noon-8pm, Sun 2-7pm", "counter": 1 }, "geometry": { "type": "Point", "coordinates": [ -151.5, 59.64 ] } },
{ "type": "Feature", "properties": { "fid": 92, "name": "Homer Brewing", "contact": "1411 Lake Shore Drive, Homer AK, (907)235-3626, www.homerbrew.com\/, Open Noon-5PM, Sometimes later.", "counter": 1 }, "geometry": { "type": "Point", "coordinates": [ -151.51, 59.64 ] } },
{ "type": "Feature", "properties": { "fid": 93, "name": "Icy Strait Brewing", "contact": "155 Front St, Hoonah AK, (907)957-6260, www.icystraitbrewing.com, Open Daily 11am-8pm", "counter": 1 }, "geometry": { "type": "Point", "coordinates": [ -135.45, 58.11 ] } },
{ "type": "Feature", "properties": { "fid": 94, "name": "Alaskan Brewing", "contact": "5429 Shaune Dr, Juneau AK, (907)780-5866, www.alaskanbeer.com\/, May-Sept: Open Daily 11:00am-6:00pm. Oct-April: Thu-Sun 11:00am-5:00pm", "counter": 1 }, "geometry": { "type": "Point", "coordinates": [ -134.49, 58.36 ] } },
{ "type": "Feature", "properties": { "fid": 95, "name": "Barnaby Brewing", "contact": "206 North Franklin St #1, Juneau AK, (907)419-0916, www.barnabybrew.com, Thu-Fri 4:30-7:30pm, Sat 2-7:30pm, Sun noon-4pm", "counter": 1 }, "geometry": { "type": "Point", "coordinates": [ -134.41, 58.3 ] } },
{ "type": "Feature", "properties": { "fid": 96, "name": "Devil's Club Brewing", "contact": "100 North Franklin St, Juneau AK, (907)209-8451, www.devilsclubbrewing.com, Call", "counter": 1 }, "geometry": { "type": "Point", "coordinates": [ -134.41, 58.3 ] } },
{ "type": "Feature", "properties": { "fid": 97, "name": "Kassik's Kenai Brew Stop", "contact": "47160 Spruce Haven ST, Kenai AK, (907)776-4055, www.kassikskenaibrewstop.com\/, Mon-Sat Noon-7PM, Sun Noon-5PM", "counter": 1 }, "geometry": { "type": "Point", "coordinates": [ -151.31, 60.66 ] } },
{ "type": "Feature", "properties": { "fid": 98, "name": "Baleen Brewing", "contact": "884 Mizzen Lane, Ketchikan AK, (907)220-7492, Planned", "counter": 1 }, "geometry": { "type": "Point", "coordinates": [ -131.82, 55.47 ] } },
{ "type": "Feature", "properties": { "fid": 99, "name": "Bawden Street Brewing", "contact": "325 Bawden St, Ketchikan AK, (907)225-4722, Mon-Fri 4-8pm, Sat noon-8pm, Sun noon-6pm", "counter": 1 }, "geometry": { "type": "Point", "coordinates": [ -131.64, 55.34 ] } },
{ "type": "Feature", "properties": { "fid": 100, "name": "Kodiak Island Brewing", "contact": "117 Lower Mill Bay Rd, Kodiak AK, (907)486-2537, www.kodiakbrewery.com\/, Open Daily Noon-7:00pm", "counter": 1 }, "geometry": { "type": "Point", "coordinates": [ -152.41, 57.79 ] } },
{ "type": "Feature", "properties": { "fid": 101, "name": "Arkose Brewing", "contact": "650 East Steel Loop, Palmer AK, www.arkosebrewery.com\/, (907)746-2337, Tue-Fri 2:00pm-7:00pm, Sat noon-5:00pm, Tours Tue at 6:00pm", "counter": 1 }, "geometry": { "type": "Point", "coordinates": [ -149.11, 61.58 ] } },
{ "type": "Feature", "properties": { "fid": 102, "name": "Bleeding Heart Brewery", "contact": "16013 East Outer Springer Loop, Palmer AK, (907)775-8515, bleedingheartbrewery.com, Thu-Fri 4-8pm, Sat noon-8pm", "counter": 1 }, "geometry": { "type": "Point", "coordinates": [ -149.09, 61.57 ] } },
{ "type": "Feature", "properties": { "fid": 103, "name": "Seward Brewing", "contact": "139 Fourth Ave, Seward AK, (907)422-0337, www.sewardbrewingcompany.com\/, Open daily 4:00pm-10:00pm", "counter": 1 }, "geometry": { "type": "Point", "coordinates": [ -149.44, 60.1 ] } },
{ "type": "Feature", "properties": { "fid": 104, "name": "Baranof Island Brewing Co", "contact": "215 Smith St, Sitka AK, (907)747-2739, www.baranofislandbrewing.com, Summer: Open daily 11:00am-8:00pm. Winter: Thu-Fri 4:30pm-8:00pm, Sat 1:00pm-8:00pm ", "counter": 1 }, "geometry": { "type": "Point", "coordinates": [ -135.31, 57.05 ] } },
{ "type": "Feature", "properties": { "fid": 105, "name": "Gold Rush Brewery", "contact": "Mile 2 Klondike Highway, Skagway AK, (907)983-2434, goldrushbrewery.com\/, Mon-Tues 11am-4pm, Wed 11am-9pm, Thu 11am-11pm, Fri 11am-4pm, Sat-Sun Call", "counter": 1 }, "geometry": { "type": "Point", "coordinates": [ -135.3, 59.47 ] } },
{ "type": "Feature", "properties": { "fid": 106, "name": "Klondike Brewing Co", "contact": "365 Second Ave, Skagway AK, (907)983-2778, www.klondikebeer.com\/, Open daily 11:00am-8:00pm", "counter": 1 }, "geometry": { "type": "Point", "coordinates": [ -135.32, 59.45 ] } },
{ "type": "Feature", "properties": { "fid": 107, "name": "Skagway Brewing", "contact": "7th and Broadway, Skagway AK, (907)983-2759, www.skagwaybrewing.com\/, Open daily 10:00am-10:00pm", "counter": 1 }, "geometry": { "type": "Point", "coordinates": [ -135.31, 59.46 ] } },
{ "type": "Feature", "properties": { "fid": 108, "name": "Saint Elias Brewing Company", "contact": "434 Sharkathmai Ave, Soldotna AK, (907)260-7837, www.steliasbrewingco.com\/, Jun-Aug Sun-Thu 11am-10pm, Fri-Sat 11am-11pm; Sep-May Sun-Thu Noon-9pm, Fri-Sat Noon-10pm", "counter": 1 }, "geometry": { "type": "Point", "coordinates": [ -151.06, 60.49 ] } },
{ "type": "Feature", "properties": { "fid": 109, "name": "Kenai River Brewing", "contact": "241 North Aspen Dr #100, Soldotna AK, (907)262-2337, www.kenairiverbrewing.com\/, Mon-Sat Noon-7:00pm", "counter": 1 }, "geometry": { "type": "Point", "coordinates": [ -151.07, 60.49 ] } },
{ "type": "Feature", "properties": { "fid": 110, "name": "Denali Brewing Company", "contact": "Twister Creek Restaurant, 13605 Main St, Talkeetna AK, (907)733-2536, May-Sept: Open daily 8am-midnight Oct-April: Mon-Wed 4pm-9pm, Thu-Sun noon-9pm ", "counter": 1 }, "geometry": { "type": "Point", "coordinates": [ -150.11, 62.32 ] } },
{ "type": "Feature", "properties": { "fid": 111, "name": "Growler Bay Brewing", "contact": "111 Hanagita Dr, Valdez AK, Planned", "counter": 1 }, "geometry": { "type": "Point", "coordinates": [ -146.35, 61.14 ] } },
{ "type": "Feature", "properties": { "fid": 112, "name": "Valdez Brewing", "contact": "101 Hazelet, Valdez AK, (907)255-7667, www.valdezbrewing.com, Planned", "counter": 1 }, "geometry": { "type": "Point", "coordinates": [ -146.36, 61.13 ] } },
{ "type": "Feature", "properties": { "fid": 113, "name": "Bearpaw River Brewing", "contact": "4605 East Palmer Wasilla Hwy, Wasilla AK, (907)373-2537, www.bearpawriverbrewing.com, Wed-Thu 2-8pm, Fri-Sat noon-8pm, Sun noon-7pm", "counter": 1 }, "geometry": { "type": "Point", "coordinates": [ -149.34, 61.58 ] } },
{ "type": "Feature", "properties": { "fid": 114, "name": "Last Frontier Brewing", "contact": "238 N. Boundary St, Wasilla AK, (907)357-7200, Sun-Thu 11:00am-9:00pm, Fri-Sat 11:00am-11:00pm", "counter": 1 }, "geometry": { "type": "Point", "coordinates": [ -149.44, 61.58 ] } },
{ "type": "Feature", "properties": { "fid": 115, "name": "Quake Brewing Co", "contact": "1540 N. Shoreline Dr, Wasilla AK, www.quakebrewingcompany.com\/, Wed-Fri 5-8pm, Sat noon-8pm, Sun 3-8pm", "counter": 1 }, "geometry": { "type": "Point", "coordinates": [ -149.34, 61.6 ] } },
{ "type": "Feature", "properties": { "fid": 116, "name": "Underground Brew Factory", "contact": "850 South Ironwood Dr, Apache Junction AZ, (480)734-4672, Call", "counter": 1 }, "geometry": { "type": "Point", "coordinates": [ -111.56, 33.41 ] } },
{ "type": "Feature", "properties": { "fid": 117, "name": "8-Bit Brewery", "contact": "1050 North Fairway Dr, Avondale AZ, (623)925-1650, www.8-bitbrewery.com\/, Tue-Thu 4:00pm-9:00pm, Fri 4:00pm-10:00pm, Sat noon-10:00pm", "counter": 1 }, "geometry": { "type": "Point", "coordinates": [ -112.33, 33.45 ] } },
{ "type": "Feature", "properties": { "fid": 118, "name": "Beast Brewing", "contact": "1326 West Highway 92 - Suite 8, Bisbee AZ, (520)284-5251, www.beastbrewingcompany.com, (Closed?)Wed-Sat Noon-8pm, Sun Noon-6pm", "counter": 1 }, "geometry": { "type": "Point", "coordinates": [ -109.93, 31.4 ] } },
{ "type": "Feature", "properties": { "fid": 119, "name": "Old Bisbee Brewing", "contact": "200 Review Alley, Bisbee AZ, (520)432-2739, www.oldbisbeebrewingcompany.com\/, Sun-Thu noon-10:30pm, Fri-Sat noon-11:30pm", "counter": 1 }, "geometry": { "type": "Point", "coordinates": [ -109.91, 31.44 ] } },
{ "type": "Feature", "properties": { "fid": 120, "name": "Veritas Brewing", "contact": "22215 West Ashleigh Marie Dr, Buckeye AZ, (623)466-0748, www.facebook.com\/VeritasBrewing, Call", "counter": 1 }, "geometry": { "type": "Point", "coordinates": [ -112.53, 33.43 ] } },
{ "type": "Feature", "properties": { "fid": 121, "name": "Verde Brewing-Brewery & Tours", "contact": "724 N. Industrial Drive #7a, Camp Verde AZ, (928)567-7033, www.verdebrewing.com\/, Open Daily 11am-9pm", "counter": 1 }, "geometry": { "type": "Point", "coordinates": [ -111.88, 34.58 ] } },
{ "type": "Feature", "properties": { "fid": 122, "name": "Black Mountain Brewing", "contact": "6245 E Cave Creek Rd, Cave Creek AZ, (480)488-4742, Closed", "counter": 1 }, "geometry": { "type": "Point", "coordinates": [ -111.95, 33.83 ] } },
{ "type": "Feature", "properties": { "fid": 123, "name": "BJ's Restaurant & Brewery", "contact": "3155 West Chandler Boulevard, Chandler AZ, (480)917-0631, Sun-Thu 11AM-Midnight, Fri-Sat 11am-1am", "counter": 1 }, "geometry": { "type": "Point", "coordinates": [ -111.9, 33.31 ] } },
{ "type": "Feature", "properties": { "fid": 124, "name": "H.O.P. Central Brewery & Taproom", "contact": "5055 West Ray Rd #2, Chandler AZ, (480)284-6320, www.hopcentralbrewery.com, Tue-Thu 3-10pm, Fri-Sat 2pm-midnight, Sun 2-8pm", "counter": 1 }, "geometry": { "type": "Point", "coordinates": [ -111.93, 33.32 ] } },
{ "type": "Feature", "properties": { "fid": 125, "name": "SanTan Brewing", "contact": "8 South San Marcos Plaza, Chandler AZ, (480)917-8700, www.santanbrewing.com\/, Mon-Thu 11:am-midnight, Fri-Sat 11am-2am, Sun 9am-midnight", "counter": 1 }, "geometry": { "type": "Point", "coordinates": [ -111.84, 33.3 ] } },
{ "type": "Feature", "properties": { "fid": 126, "name": "SanTan Brewing #2", "contact": "495 East Warner Road, Chandler AZ, www.santanbrewing.com\/, Planned", "counter": 1 }, "geometry": { "type": "Point", "coordinates": [ -111.83, 33.33 ] } },
{ "type": "Feature", "properties": { "fid": 127, "name": "The Perch Pub & Brewery", "contact": "232 South Wall St Chandler AZ, (480)773-7688, www.perchpubbrewery.com, Sun-Mon 11:00am-11:00pm, Tue-Sat 11:00am-midnight", "counter": 1 }, "geometry": { "type": "Point", "coordinates": [ -111.84, 33.3 ] } },
{ "type": "Feature", "properties": { "fid": 128, "name": "Insurgent Brewing", "contact": "990-B North Highway 89, Chino Valley AZ, (928)925-4773, www.insurgentbrewingco.com, Mon-Wed 3-6pm, Thu 3-8pm, Fri 3-9pm, Sat noon-9pm, Sun 1-6pm", "counter": 1 }, "geometry": { "type": "Point", "coordinates": [ -112.45, 34.76 ] } },
{ "type": "Feature", "properties": { "fid": 129, "name": "Edge of the World Brewery", "contact": "70 North Central St, Colorado City AZ, (928)875-8710, www.edgeoftheworld.bar, Thu-Sun 4-10pm", "counter": 1 }, "geometry": { "type": "Point", "coordinates": [ -112.97, 36.99 ] } },
{ "type": "Feature", "properties": { "fid": 130, "name": "THAT Brewery", "contact": "300-B East Cherry St, Cottonwood AZ, (928)202-3013, www.thatbrewery.com\/, Mon-Thu 4:00pm-7:00pm, Fri-Sat 2:00pm-9:00pm, Sun 2:00pm-7:00pm", "counter": 1 }, "geometry": { "type": "Point", "coordinates": [ -112.03, 34.73 ] } },
{ "type": "Feature", "properties": { "fid": 131, "name": "Beaver Street Brewery", "contact": "11 South Beaver St, Flagstaff AZ, (520)779-0079, Open Sun-Thu 11:00am-11:00pm, Fri-Sat 11:00am-Midnight", "counter": 1 }, "geometry": { "type": "Point", "coordinates": [ -111.65, 35.2 ] } },
{ "type": "Feature", "properties": { "fid": 132, "name": "Cosmic Beer", "contact": "2323 East Greenlaw Lane #4, Flagstaff AZ, (928)814-0770, cosmicdistributing.com\/, Call", "counter": 1 }, "geometry": { "type": "Point", "coordinates": [ -111.61, 35.21 ] } },
{ "type": "Feature", "properties": { "fid": 133, "name": "Dark Sky Brewing", "contact": "117-A North Beaver St, Flagstaff AZ, (928)440-5151, www.darkskybrewing.com, Wed-Fri 2-10pm, Sat 11am-10pm, Sun noon-8pm", "counter": 1 }, "geometry": { "type": "Point", "coordinates": [ -111.65, 35.2 ] } },
{ "type": "Feature", "properties": { "fid": 134, "name": "Flagstaff Brewing", "contact": "16 East Route 66, Flagstaff AZ, (520)773-1442, Mon-Sat 11:00am-2:00am; Sun 11:00am-Midnight", "counter": 1 }, "geometry": { "type": "Point", "coordinates": [ -111.65, 35.2 ] } },
{ "type": "Feature", "properties": { "fid": 135, "name": "Historic Brewing", "contact": "4366 E. Huntington Dr, Flagstaff AZ, (855)484-4677, www.historicbrewingcompany.com, Wed-Fri 4-9pm, Sat-Sun 2-7pm", "counter": 1 }, "geometry": { "type": "Point", "coordinates": [ -111.59, 35.22 ] } },
{ "type": "Feature", "properties": { "fid": 136, "name": "Historic Brewing Taproom", "contact": "110 South San Francisco St, Flagstaff AZ, (855)484-4677, www.historicbrewingcompany.com, Mon-Thu 11am-11pm, Sat 9am-midnight, Sun 9am-10pm", "counter": 1 }, "geometry": { "type": "Point", "coordinates": [ -111.65, 35.19 ] } },
{ "type": "Feature", "properties": { "fid": 137, "name": "Lumberyard Brewing", "contact": "5 South San Francisco St, Flagstaff AZ, (928)779-2739, lumberyardbrewingcompany.com\/, Sun-Tue 11am-Midnight, Wed-Sat 11am-2am", "counter": 1 }, "geometry": { "type": "Point", "coordinates": [ -111.65, 35.2 ] } },
{ "type": "Feature", "properties": { "fid": 138, "name": "Mogollon Brewing", "contact": "4366 Huntington Dr, Flagstaff AZ, (520)773-8950, www.mogbrew.com\/, Closed?, Call", "counter": 1 }, "geometry": { "type": "Point", "coordinates": [ -111.59, 35.22 ] } },
{ "type": "Feature", "properties": { "fid": 139, "name": "Mother Road Brewing", "contact": "7 South Mikes Pike, Flagstaff AZ, (928)774-9139, motherroadbeer.com\/, Mon-Fri 3:00pm-9:00pm, Sat-Sun 11:00am-9:00pm", "counter": 1 }, "geometry": { "type": "Point", "coordinates": [ -111.65, 35.2 ] } },
{ "type": "Feature", "properties": { "fid": 140, "name": "Mother Road Brewing", "contact": "1300 East Butler Ave #200, Flagstaff AZ, (928)774-0492, motherroadbeer.com\/, Tue-Thu 4-8pm, Fri 4-9pm, Sat noon-9pm, Sun noon-8pm", "counter": 1 }, "geometry": { "type": "Point", "coordinates": [ -111.63, 35.19 ] } },
{ "type": "Feature", "properties": { "fid": 141, "name": "Trail Crest Brewing", "contact": "1800 South Milton Rd #11, Flagstaff AZ, (928)440-5085, www.trailcrestbrewing.com, Open Daily 11am-11pm", "counter": 1 }, "geometry": { "type": "Point", "coordinates": [ -111.66, 35.18 ] } },
{ "type": "Feature", "properties": { "fid": 142, "name": "Trailhead Beer Co", "contact": "100 N. Humphreys St, Flagstaff AZ, www.trailheadbeer.com\/, Planned", "counter": 1 }, "geometry": { "type": "Point", "coordinates": [ -111.65, 35.2 ] } },
{ "type": "Feature", "properties": { "fid": 143, "name": "Wanderlust Brewing Company", "contact": "1519 North Main St # 102, Flagstaff AZ, (928)351-7952, www.wanderlustbrewing.com\/, Thu-Fri 4-9pm, Sat 2-8pm", "counter": 1 }, "geometry": { "type": "Point", "coordinates": [ -111.62, 35.2 ] } },
{ "type": "Feature", "properties": { "fid": 144, "name": "Bone Haus Brewing", "contact": "14825 East Shea Blvd, Fountain Hills AZ, (480)292-9541, www.bonehausbrewing.com, Thu-Sat 4-10pm", "counter": 1 }, "geometry": { "type": "Point", "coordinates": [ -111.76, 33.58 ] } },
{ "type": "Feature", "properties": { "fid": 145, "name": "12 West Brewing", "contact": "3000 East Ray Rd Bldg 6 #110, Gilbert AZ, (480)404-9699, www.12westbrewing.com, Sunday 11:00am-9:00pm, Mon-Wed 11:00am-10:00pm, Thu-Sat 11:00am-11:00pm", "counter": 1 }, "geometry": { "type": "Point", "coordinates": [ -111.73, 33.32 ] } },
{ "type": "Feature", "properties": { "fid": 146, "name": "Arizona Wilderness Brewing", "contact": "721 North Arizona Ave #103, Gilbert AZ, (480)284-9863, www.azwbeer.com\/, Mon-Thu 11:00am-11:00pm, Fri-Sat 11:00am-1:00am, Sun 11:00am-10:00pm", "counter": 1 }, "geometry": { "type": "Point", "coordinates": [ -111.84, 33.36 ] } },
{ "type": "Feature", "properties": { "fid": 147, "name": "Arriba Mexican Grill", "contact": "255 S Market St, Gilbert AZ, (480)899-7337, Mon-Thu 10:45-10PM, Fri 10:45-11PM, Sat 9AM-11PM, Sun 9AM-10PM", "counter": 1 }, "geometry": { "type": "Point", "coordinates": [ -111.74, 33.3 ] } },
{ "type": "Feature", "properties": { "fid": 148, "name": "Desert Monks Brewing", "contact": "1094 South Gilbert Rd #101, Gilbert AZ, (480)525-7444, www.desertmonksbrewing.com, Open Daily 4-11pm", "counter": 1 }, "geometry": { "type": "Point", "coordinates": [ -111.79, 33.33 ] } },
{ "type": "Feature", "properties": { "fid": 149, "name": "Flying Basset Brewing", "contact": "720 West Ray Rd, Gilbert AZ, (480)426-1373, www.flyingbassetbrewing.com, Sun-Thu 11am-10pm, Fri-Sat 11am-midnight", "counter": 1 }, "geometry": { "type": "Point", "coordinates": [ -111.81, 33.32 ] } },
{ "type": "Feature", "properties": { "fid": 150, "name": "Four Silos Brewery", "contact": "143 South Highley Rd #101, Gilbert AZ, (480)210-7456, www.foursilosbrewery.com, Mon-Thu 6:30am-10pm, Fri-Sat 6:30am-11pm, Sun 8am-7pm", "counter": 1 }, "geometry": { "type": "Point", "coordinates": [ -111.72, 33.35 ] } },
{ "type": "Feature", "properties": { "fid": 151, "name": "Gordon Biersch Brewing", "contact": "2218 East Williams Field Road #101, Gilbert AZ, (480)722-0883, Sun-Wed 11am-11pm, Thu 11am-Midnight, Fri-sat 11am-1:30am; Happy Hour Sun-Fri 3-6:30pm", "counter": 1 }, "geometry": { "type": "Point", "coordinates": [ -111.74, 33.31 ] } },
{ "type": "Feature", "properties": { "fid": 152, "name": "O.H.S.O. Brewery", "contact": "335 North Gilbert Rd, Gilbert AZ, (602)900-9004, ohsobrewery.com\/, Mon-Thu 11am-midnight, Fri 11am-1:30am, Sat 9am-1:30am, Sun 9am-midnight", "counter": 1 }, "geometry": { "type": "Point", "coordinates": [ -111.79, 33.36 ] } },
{ "type": "Feature", "properties": { "fid": 153, "name": "Arriba Mexican Grill", "contact": "17211 N 79th Ave, Glendale AZ, (623)878-5777, M-Th 10:45-10PM, F 10:45-11PM, Sat 9AM-11PM, Sun 9AM-10PM", "counter": 1 }, "geometry": { "type": "Point", "coordinates": [ -112.23, 33.64 ] } },
{ "type": "Feature", "properties": { "fid": 154, "name": "Dubina Brewing Co", "contact": "17035 North 67th Ave #6, Glendale AZ, (623)412-7770, dubinabrew.com\/, Wed-Thu 3-10pm, Fri 3pm-midnight, Sat 11am-Midnight, Sun 11am-9pm, Mon 3-10pm", "counter": 1 }, "geometry": { "type": "Point", "coordinates": [ -112.2, 33.64 ] } },
{ "type": "Feature", "properties": { "fid": 155, "name": "Good Bad Ugly Brewing at Tavern Bowl Westgate", "contact": "6770 North Sunrise Blvd #G100, Glendale AZ, (602)875-0875, Call", "counter": 1 }, "geometry": { "type": "Point", "coordinates": [ -112.26, 33.53 ] } },
{ "type": "Feature", "properties": { "fid": 156, "name": "Oggi's Pizza and Brewing", "contact": "6681 W. Beardsley Rd, Glendale AZ, (623)566-8080, Call", "counter": 1 }, "geometry": { "type": "Point", "coordinates": [ -112.2, 33.67 ] } },
{ "type": "Feature", "properties": { "fid": 157, "name": "Rock Bottom Restaurant & Brewery", "contact": "7640 West Bell Rd, Glendale AZ, (623)878-8822, Sun-Thu 11AM-Midnight, Wed-Sat 11AM-1AM", "counter": 1 }, "geometry": { "type": "Point", "coordinates": [ -112.22, 33.64 ] } },
{ "type": "Feature", "properties": { "fid": 158, "name": "Saddle Mountain Brewing Co", "contact": "15651 West Roosevelt St, Goodyear AZ, (623)249-5520, saddlemountainbrewing.com\/, Sun-Thu 11am-10pm, Fri-Sat 11am-Midnight", "counter": 1 }, "geometry": { "type": "Point", "coordinates": [ -112.4, 33.46 ] } },
{ "type": "Feature", "properties": { "fid": 159, "name": "Black Bridge Brewery", "contact": "421 East Beale St, Kingman AZ, (928)377-3618, www.blackbridgebrewery.com\/, Mon-Wed 11am-9pm, Thu-Sat 11am-11pm", "counter": 1 }, "geometry": { "type": "Point", "coordinates": [ -114.05, 35.19 ] } },
{ "type": "Feature", "properties": { "fid": 160, "name": "Rickety Cricket Brewing", "contact": "312-B East Beale St, Kingman AZ, (928)753-2337, www.ricketycricketbrewing.com, Mon-Thu 10:30am-9pm, Fri 10:30am-Late, Sat 10am-Late, Sun 10am-8pm", "counter": 1 }, "geometry": { "type": "Point", "coordinates": [ -114.05, 35.19 ] } },
{ "type": "Feature", "properties": { "fid": 161, "name": "Barley Brothers Brewery and Grill", "contact": "1425 McCulloch Blvd, Lake Hav. City AZ, (928)505-7837, Open Daily 11:00am", "counter": 1 }, "geometry": { "type": "Point", "coordinates": [ -114.26, 34.46 ] } },
{ "type": "Feature", "properties": { "fid": 162, "name": "College Street Brewhouse & Pub", "contact": "1940 College Dr, Lake Havasu City AZ, (928)854-2739, www.collegestreetbrewhouseandpub.com\/, Open Daily 11am-Midnight", "counter": 1 }, "geometry": { "type": "Point", "coordinates": [ -114.35, 34.51 ] } },
{ "type": "Feature", "properties": { "fid": 163, "name": "Copper Canyon Brewing", "contact": "1519 Queens Bay # 101, Lake Havasu City AZ, (928)733-6039, Tue-Sun 11am-10pm", "counter": 1 }, "geometry": { "type": "Point", "coordinates": [ -114.34, 34.47 ] } },
{ "type": "Feature", "properties": { "fid": 164, "name": "Hangar 24 Craft Brewing", "contact": "5600 North Highway 95 #6, Lake Havasu City AZ, (928)846-4447, www.hangar24brewing.com, Open daily 11am-10pm", "counter": 1 }, "geometry": { "type": "Point", "coordinates": [ -114.36, 34.57 ] } },
{ "type": "Feature", "properties": { "fid": 165, "name": "Mudshark Brewing", "contact": "210 Swanson Ave, Lake Havasu City AZ, (928)453-2981, Open 11:00am-10pm", "counter": 1 }, "geometry": { "type": "Point", "coordinates": [ -114.34, 34.47 ] } },
{ "type": "Feature", "properties": { "fid": 166, "name": "Pinetop Brewing", "contact": "159 West White Mountain Blvd, Lakeside AZ, (928)358-1971, www.pinetopbeer.com, Mon-Thu 11am-9pm, Fri-Sun 11am-10pm", "counter": 1 }, "geometry": { "type": "Point", "coordinates": [ -109.96, 34.14 ] } },
{ "type": "Feature", "properties": { "fid": 167, "name": "Peoria Artisan Brewery", "contact": "107 West Honeysuckle St, Litchfield Park AZ, (623)536-4804, www.peoriaartisanbrewing.com, Tue-Thu 3:00pm-8:00pm, Fri-Sun Noon-10:00pm", "counter": 1 }, "geometry": { "type": "Point", "coordinates": [ -112.24, 33.58 ] } },
{ "type": "Feature", "properties": { "fid": 168, "name": "Transplant City Beer Co", "contact": "107 West Honeysuckle St, Litchfield Park AZ, (623)535-3911, www.transplantcitybeercompany.com, Mon-Thu 3-9pm, Fri 2-10pm, Sat 11am-10pm, Sun noon-6pm", "counter": 1 }, "geometry": { "type": "Point", "coordinates": [ -112.36, 33.49 ] } },
{ "type": "Feature", "properties": { "fid": 169, "name": "Catalina Brewing", "contact": "6918 North Camino Martin, Marana AZ, (520)954-5699, www.catalinabrewingco.com\/, Thu 4-9pm, Fri 4-10pm, Sat noon-10pm, Sun 11am-5pm", "counter": 1 }, "geometry": { "type": "Point", "coordinates": [ -111.06, 32.34 ] } },
{ "type": "Feature", "properties": { "fid": 170, "name": "Wicked Monkey Brewing", "contact": "12708 North Rangpur Dr, Marana AZ, (520)977-6977, Planned", "counter": 1 }, "geometry": { "type": "Point", "coordinates": [ -111.21, 32.44 ] } },
{ "type": "Feature", "properties": { "fid": 171, "name": "Beer Research Institute", "contact": "1641 South Stapley Dr, Mesa AZ, (480)892-2020, www.thebeerresearchinstitute.com, Sun-Wed 11am-10pm, Thu-Sat 11am-Midnight", "counter": 1 }, "geometry": { "type": "Point", "coordinates": [ -111.8, 33.38 ] } },
{ "type": "Feature", "properties": { "fid": 172, "name": "Desert Eagle Brewing", "contact": "150 West Main St, Mesa AZ, (480)656-2662, Mon-Fri 3:00pm-Midnight, Sat 11:00am-Midnight, Sun 11:00am-9:00pm", "counter": 1 }, "geometry": { "type": "Point", "coordinates": [ -111.84, 33.42 ] } },
{ "type": "Feature", "properties": { "fid": 173, "name": "Lochiel Brewing", "contact": "7143 East Southern Ave #131, Mesa AZ, (480)666-0915, www.lochielbrewing.com, Tue-Thu 1-8pm, Fri-Sat 11am-9pm", "counter": 1 }, "geometry": { "type": "Point", "coordinates": [ -111.68, 33.39 ] } },
{ "type": "Feature", "properties": { "fid": 174, "name": "Oro Brewing", "contact": "210 West Main St, Mesa AZ, (480)398-8247, www.orobrewing.com, Mon-Thu 3-10pm, Fri 3-11pm, Sat 11am-11pm, Sun 11am-6pm", "counter": 1 }, "geometry": { "type": "Point", "coordinates": [ -111.84, 33.42 ] } },
{ "type": "Feature", "properties": { "fid": 175, "name": "Rock Bottom Restaurant & Brewery", "contact": "8668 East Shea Blvd, North Scottsdale AZ (602)998-7777, Sun-Thu 11:00am-11:00pm, Fri 11:00am-1:00am, Sat 11:00am-Midnight; Happy Hour M-F 4-7pm", "counter": 1 }, "geometry": { "type": "Point", "coordinates": [ -111.87, 33.58 ] } },
{ "type": "Feature", "properties": { "fid": 176, "name": "Pueblo Vida Brewing", "contact": "1500 East Pusch Wilderness Dr - Unit 12204, Oro Valley AZ, www.pueblovidabrewing.com", "counter": 1 }, "geometry": { "type": "Point", "coordinates": [ -110.95, 32.4 ] } },
{ "type": "Feature", "properties": { "fid": 177, "name": "Peoria Artisan Brewery", "contact": "10144 West Lake Pleasant Parkway, Peoria AZ, (623)572-2816, peoriaartisanbrewing.com\/, Mon-Wed 11am-9pm, Thu-Sat 11am-10pm, Sun 10am-9pm", "counter": 1 }, "geometry": { "type": "Point", "coordinates": [ -112.28, 33.68 ] } },
{ "type": "Feature", "properties": { "fid": 178, "name": "Richter Aleworks", "contact": "8279 West Lake Pleasant Parkway #109, Peoria AZ, (602)908-6553, www.richteraleworks.com\/, Sun-Thu noon-9:00pm, Fri-Sat noon-11:00pm", "counter": 1 }, "geometry": { "type": "Point", "coordinates": [ -112.24, 33.67 ] } },
{ "type": "Feature", "properties": { "fid": 179, "name": "Bold Barley Brewing", "contact": "2737 West Thunderbird Rd #102, Phoenix AZ, (602)978-0007, boldbarleybrewing.com\/, Sun-Thu 11:00am-10:00pm, Fri-Sat 11:00am-11:00pm", "counter": 1 }, "geometry": { "type": "Point", "coordinates": [ -112.12, 33.61 ] } },
{ "type": "Feature", "properties": { "fid": 180, "name": "Deep Roots Brewing", "contact": "815 West Madison St, Phoenix AZ, (602)330-6790, www.deeprootsbrewing.com, Call", "counter": 1 }, "geometry": { "type": "Point", "coordinates": [ -112.08, 33.45 ] } },
{ "type": "Feature", "properties": { "fid": 181, "name": "Front Pourch Brewing", "contact": "1611 West Whispering Wind Dr #7, Phoenix AZ, (623)277-0526, www.frontpourchbrewing.com, Mon-Thu 3pm-9pm, Fri-Sat noon-9pm, Sun noon-8pm", "counter": 1 }, "geometry": { "type": "Point", "coordinates": [ -112.09, 33.71 ] } },
{ "type": "Feature", "properties": { "fid": 182, "name": "Grand Avenue Brewing Co", "contact": "1205 West Pierce St, Phoenix AZ, (602)670-5465, Tue-Thu 3pm-9pm, Fri 3pm-11pm, Sat 11am-11pm, Sun 11am-8pm", "counter": 1 }, "geometry": { "type": "Point", "coordinates": [ -112.09, 33.46 ] } },
{ "type": "Feature", "properties": { "fid": 183, "name": "Greenwood Brewing", "contact": "600 North 4th St #210, Phoenix AZ, (480)208-9500, www.greenwoodbrews.com, Call", "counter": 1 }, "geometry": { "type": "Point", "coordinates": [ -112.07, 33.45 ] } },
{ "type": "Feature", "properties": { "fid": 184, "name": "Helio Basin Brewing", "contact": "3935 East Thomas Rd, Phoenix AZ, (602)354-3525, www.heliobasinbrewing.com, Tue-Sat 11am-11pm, Sun 10am-9pm", "counter": 1 }, "geometry": { "type": "Point", "coordinates": [ -112.0, 33.48 ] } },
{ "type": "Feature", "properties": { "fid": 185, "name": "Helton Brewing Co", "contact": "4621 North 11th Place, Phoenix AZ, (602)502-7022, heltonbrewingcompany.com\/, Call", "counter": 1 }, "geometry": { "type": "Point", "coordinates": [ -112.06, 33.5 ] } },
{ "type": "Feature", "properties": { "fid": 186, "name": "Helton Brewing Co", "contact": "2144 E. Indian School Rd, Phoenix AZ, (480)718-2159, heltonbrewingcompany.com\/, Tue-Thu 3-9pm, Fri 3-10pm, Sat noon-10pm, Sun noon-7pm", "counter": 1 }, "geometry": { "type": "Point", "coordinates": [ -112.03, 33.5 ] } },
{ "type": "Feature", "properties": { "fid": 187, "name": "Mother Bunch Brewing", "contact": "825 North Seventh St, Phoenix AZ, (602)368-3580, www.motherbunchbrew.com\/, Sun-Thu 11:00am-10:00pm, Fri-Sat 11:00am-midnight", "counter": 1 }, "geometry": { "type": "Point", "coordinates": [ -112.06, 33.46 ] } },
{ "type": "Feature", "properties": { "fid": 188, "name": "North Mountain Brewing", "contact": "522 East Dunlap Ave, Phoenix AZ, (602)861-5999, NorthMountainBrewing.com\/, Mon-Wed 3:00pm-11:00pm, Thu-Sun 11:00am-11:00pm", "counter": 1 }, "geometry": { "type": "Point", "coordinates": [ -112.07, 33.57 ] } },
{ "type": "Feature", "properties": { "fid": 189, "name": "O.H.S.O. Eatery & nanoBrewery", "contact": "4900 East Indian School Rd, Phoenix AZ, (602)955-0358, www.ohsobrewery.com\/, Mon-Fri 11:00am-midnight, Sat-Sun 9:00am-Midnight", "counter": 1 }, "geometry": { "type": "Point", "coordinates": [ -111.98, 33.5 ] } },
{ "type": "Feature", "properties": { "fid": 190, "name": "Old World Brewery", "contact": "334 North 25th Ave, Phoenix AZ, (623)581-3359, www.oldworldbrewery.com\/, Tue-Thu 11:00am-7:00pm, Fri 11:00am-8:00pm, Sat at 6:00pm", "counter": 1 }, "geometry": { "type": "Point", "coordinates": [ -112.11, 33.45 ] } },
{ "type": "Feature", "properties": { "fid": 191, "name": "PHX Beer Co", "contact": "3002 East Washington St, Phoenix AZ, (602)275-5049, www.phoenixbrew.com\/, Open daily noon-7:00pm", "counter": 1 }, "geometry": { "type": "Point", "coordinates": [ -112.02, 33.45 ] } },
{ "type": "Feature", "properties": { "fid": 192, "name": "Rock Bottom Restaurant & Brewery", "contact": "21001 North Tatum Blvd, Phoenix AZ, (480)513-9125, Sun-Thu 11:00am-midnight, Fri-Sat 11:00am-1:00am; Happy Hour M-F 4-7pm", "counter": 1 }, "geometry": { "type": "Point", "coordinates": [ -111.98, 33.68 ] } },
{ "type": "Feature", "properties": { "fid": 193, "name": "Rock Bottom Restaurant & Brewery", "contact": "14205 South 50th St, Phoenix AZ, (480)598-1300, Sun-Mon 11am-11pm, Tue-Thu 11am-Midnight, Fri-Sat 11am-1am, Happy Hour M-F 3:30-6:30pm", "counter": 1 }, "geometry": { "type": "Point", "coordinates": [ -111.98, 33.32 ] } },
{ "type": "Feature", "properties": { "fid": 194, "name": "San Tan Brewing", "contact": "1525 East Bethany Home Rd, Phoenix AZ, (602)595-7390, santanbrewing.com\/, Mon-Thu 11am-11pm, Fri-Sat 8am-1am, Sun 8am-11pm", "counter": 1 }, "geometry": { "type": "Point", "coordinates": [ -112.05, 33.52 ] } },
{ "type": "Feature", "properties": { "fid": 195, "name": "State 48 Brewery", "contact": "345 West Van Buren St, Phoenix AZ, www.statefortyeightbrewery.com\/, Planned", "counter": 1 }, "geometry": { "type": "Point", "coordinates": [ -112.08, 33.45 ] } },
{ "type": "Feature", "properties": { "fid": 196, "name": "SunUp Brewery", "contact": "322 E Camelback Rd, Phoenix AZ, (602)279-8909, Sun-Thu 11am-11pm, Fri-Sat 11am-Midnight, Happy Hour 3-6pm Daily", "counter": 1 }, "geometry": { "type": "Point", "coordinates": [ -112.07, 33.51 ] } },
{ "type": "Feature", "properties": { "fid": 197, "name": "The Phoenix Ale Brewery", "contact": "3002 East Washington St, Phoenix AZ, (602)275-5049, www.phoenixbrew.com\/, Open daily noon-7:00pm", "counter": 1 }, "geometry": { "type": "Point", "coordinates": [ -112.02, 33.45 ] } },
{ "type": "Feature", "properties": { "fid": 198, "name": "Uncle Bear's Brewhouse Grill", "contact": "4921 East Ray Road # 103, Phoenix AZ, (480)961-2374, www.unclebearsbrewhousegrill.com\/, Open daily 11:00am-2:00am", "counter": 1 }, "geometry": { "type": "Point", "coordinates": [ -111.98, 33.32 ] } },
{ "type": "Feature", "properties": { "fid": 199, "name": "Walter Station Brewery", "contact": "4056 East Washington St, Phoenix AZ, (602)368-8402 or (267)421-6316, walterstation.beer\/, Fri 3-11pm, Sat 11am-11pm, Sun 11am-9pm", "counter": 1 }, "geometry": { "type": "Point", "coordinates": [ -111.99, 33.45 ] } },
{ "type": "Feature", "properties": { "fid": 200, "name": "Wen House Brewing Co", "contact": "2125 North 24th St, Phoenix AZ, (480)600-7499 or (602)244-9184, wrenhousebrewing.com\/, Mon-Fri 5:00pm-9:00pm, Sat-Sun 11:00am-9:00pm", "counter": 1 }, "geometry": { "type": "Point", "coordinates": [ -112.03, 33.47 ] } },
{ "type": "Feature", "properties": { "fid": 201, "name": "THAT Brewery & Pub", "contact": "3270 North Highway 87, Pine AZ, (928)476-3349, www.thatbrewery.com\/, Wed-Thu 11:00am-8:00pm, Fri-Sat 11:00am-10:00pm, Sun 11:00am-8:00pm", "counter": 1 }, "geometry": { "type": "Point", "coordinates": [ -111.45, 34.38 ] } },
{ "type": "Feature", "properties": { "fid": 202, "name": "BJ's Restaurant & Brewhouse", "contact": "9748 West Northern Ave, Peoria AZ, (623)772-6470, Sun-Thu 11:00am-11:00pm, Fri-Sat 11:00am-1:00am", "counter": 1 }, "geometry": { "type": "Point", "coordinates": [ -112.27, 33.55 ] } },
{ "type": "Feature", "properties": { "fid": 203, "name": "Freak'N Brewing", "contact": "9299 West Olive Ave #513, Peoria AZ, (623)556-0190, www.freaknbrew.com\/, Fri 3-8pm, Sat 2-8pm, Sun 2-6pm", "counter": 1 }, "geometry": { "type": "Point", "coordinates": [ -112.26, 33.56 ] } },
{ "type": "Feature", "properties": { "fid": 204, "name": "Coppertop Alehouse", "contact": "220 South Montezuma St, Prescott AZ, (928)351-7712, www.coppertopalehouse.com, Sun-Thu 10am-8pm, Fri-Sat 10am-10pm", "counter": 1 }, "geometry": { "type": "Point", "coordinates": [ -112.47, 34.54 ] } },
{ "type": "Feature", "properties": { "fid": 205, "name": "Granite Mountain Brewing", "contact": "123 North Cortez St, Prescott AZ, (928)778-5535, www.granitemountainbrewing.com\/, Open daily 4:00pm-10:00pm", "counter": 1 }, "geometry": { "type": "Point", "coordinates": [ -112.47, 34.54 ] } },
{ "type": "Feature", "properties": { "fid": 206, "name": "Lazy G Brewhouse", "contact": "220 West Leroux St, Prescott AZ, (928)445-2994, www.lazygbrewhouse.com, Opens Wed-Sun @ 11am", "counter": 1 }, "geometry": { "type": "Point", "coordinates": [ -112.47, 34.53 ] } },
{ "type": "Feature", "properties": { "fid": 207, "name": "Mark's Beergarden", "contact": "1590 Swenson St, Prescott AZ, (928)515-1044, www.marksbeergarden.com\/home\/, Open daily 11am-midnight", "counter": 1 }, "geometry": { "type": "Point", "coordinates": [ -112.49, 34.57 ] } },
{ "type": "Feature", "properties": { "fid": 208, "name": "Prescott Brewing", "contact": "130-A West Gurley St, Prescott AZ, (928)771-2795, Open 11:00am Daily until Late", "counter": 1 }, "geometry": { "type": "Point", "coordinates": [ -112.47, 34.54 ] } },
{ "type": "Feature", "properties": { "fid": 209, "name": "Lonesome Valley Brewing", "contact": "3040 N Windsong Dr #101, Prescott Valley AZ, (928)515-3541, Sun-Thu 11am-9pm Fri-Sat 11am-11pm", "counter": 1 }, "geometry": { "type": "Point", "coordinates": [ -112.33, 34.59 ] } },
{ "type": "Feature", "properties": { "fid": 210, "name": "Old Ellsworth Brewing", "contact": "22005 South Ellsworth Rd, Queen Creek AZ, (480)433-0651, www.oldellsworthbrewing.com, Call", "counter": 1 }, "geometry": { "type": "Point", "coordinates": [ -111.63, 33.25 ] } },
{ "type": "Feature", "properties": { "fid": 211, "name": "Owl's Orchard Brewery", "contact": "20518 East Orchard Lane, Queen Creek AZ, (480)254-4070, Thu-Sat Noon-8pm", "counter": 1 }, "geometry": { "type": "Point", "coordinates": [ -111.64, 33.21 ] } },
{ "type": "Feature", "properties": { "fid": 212, "name": "Arriba Mexican Grill", "contact": "15236 N Pima Rd, Scottsdale AZ, (480)948-3030, Mon-Thu 10:45-10:00PM, Fri 10:45-11:00PM, Sat 9AM-11PM, Sun 9AM-10PM", "counter": 1 }, "geometry": { "type": "Point", "coordinates": [ -111.89, 33.63 ] } },
{ "type": "Feature", "properties": { "fid": 213, "name": "Bad Water Brewing", "contact": "4216 North Brown Ave, Scottsdale AZ, (480)748-4460, www.badwaterbrewing.com\/, Tue-Sat 4-11pm", "counter": 1 }, "geometry": { "type": "Point", "coordinates": [ -111.92, 33.5 ] } },
{ "type": "Feature", "properties": { "fid": 214, "name": "Birreria Italia", "contact": "15444 North Greenway Hayden Loop, Scottsdale AZ, (480)607-6458, Call", "counter": 1 }, "geometry": { "type": "Point", "coordinates": [ -111.92, 33.63 ] } },
{ "type": "Feature", "properties": { "fid": 215, "name": "Fate Brewing", "contact": "7337 East Shea Blvd Suite 105, Scottsdale AZ, (480)994-1275, www.fatebrewing.com\/, Sun-Thu 11am-10pm, Fri-Sat 11am-11pm", "counter": 1 }, "geometry": { "type": "Point", "coordinates": [ -111.92, 33.58 ] } },
{ "type": "Feature", "properties": { "fid": 216, "name": "Fate Brewing #2", "contact": "1312 North Scottsdale Road, Scottsdale AZ, (480)656-9100, www.fatebrewing.com\/, Sun-Thu 11:00am-11:00pm, Fri-Sat 11:00am-midnight", "counter": 1 }, "geometry": { "type": "Point", "coordinates": [ -111.93, 33.46 ] } },
{ "type": "Feature", "properties": { "fid": 217, "name": "Four Peaks Brewing", "contact": "15730 North Pima Road #D5-7, Scottsdale AZ, (480)991-1795, Mon-Sat 11AM-2AM, Sun 10AM-2AM", "counter": 1 }, "geometry": { "type": "Point", "coordinates": [ -111.89, 33.63 ] } },
{ "type": "Feature", "properties": { "fid": 218, "name": "Goldwater Brewing Co", "contact": "3608 North Scottsdale Rd, Scottsdale AZ, (480)350-7305, goldwaterbrewing.com\/, Mon, Wed-Thu 5-9pm, Fri 3pm-midnight, Sat 1pm-midnight, Sun 1-9pm", "counter": 1 }, "geometry": { "type": "Point", "coordinates": [ -111.93, 33.49 ] } },
{ "type": "Feature", "properties": { "fid": 219, "name": "Loco Patron Mexican Brewery", "contact": "14950 North Northsight Blvd, Scottsdale AZ, (480)874-0033, www.locopatron.com, Daily 11am-2am", "counter": 1 }, "geometry": { "type": "Point", "coordinates": [ -111.9, 33.62 ] } },
{ "type": "Feature", "properties": { "fid": 220, "name": "Mesquite River Brewing", "contact": "13610 North Scottsdale Rd #18, Scottsdale AZ, www.mesquiteriverbrewing.com\/, Mon-Thu 3-10pm, Fri-Sat noon-10pm, Sun noon-8pm", "counter": 1 }, "geometry": { "type": "Point", "coordinates": [ -111.93, 33.61 ] } },
{ "type": "Feature", "properties": { "fid": 221, "name": "Oggi's Pizza and Brewing", "contact": "8763 East Bell Road #101, Scottsdale AZ, (480)699-7604, (Closed?)Sun-Thu 11AM-9PM, Fri-Sat 11AM-11PM", "counter": 1 }, "geometry": { "type": "Point", "coordinates": [ -111.89, 33.64 ] } },
{ "type": "Feature", "properties": { "fid": 222, "name": "Papago Brewing", "contact": "7107 E McDowell Rd, Scottsdale AZ, (480)425-7439, (Closed?) M-W 2PM-Midnight, Thu-Fri 2PM-2AM, Sat Noon-2AM, Sun Noon-Midnight", "counter": 1 }, "geometry": { "type": "Point", "coordinates": [ -111.93, 33.47 ] } },
{ "type": "Feature", "properties": { "fid": 223, "name": "Pinnacle Peak Patio Steakhouse & Microbrewery", "contact": "10426 E Jomax Rd, (480)563-5133, Mon-Thu 4PM-10PM, Fri-Sat 4PM-11PM, Sun Noon-10PM", "counter": 1 }, "geometry": { "type": "Point", "coordinates": [ -111.85, 33.73 ] } },
{ "type": "Feature", "properties": { "fid": 224, "name": "Scottsdale Beer Co", "contact": "8608 East Shea Blvd, Scottsdale AZ, (480)219-1844, www.scottsdalebeercompany.com\/, Sun-Thu 11am-11pm, Fri-Sat 11am-midnight", "counter": 1 }, "geometry": { "type": "Point", "coordinates": [ -111.89, 33.58 ] } },
{ "type": "Feature", "properties": { "fid": 225, "name": "Sonoran Brewing Company", "contact": "10426 East Jomax Road, Scottsdale AZ, (602)484-7775, www.sonoranbrewing.com\/, Mon-Thu 4PM-10PM, Fri-Sat 4PM-11PM, Sun Noon-10PM", "counter": 1 }, "geometry": { "type": "Point", "coordinates": [ -111.85, 33.73 ] } },
{ "type": "Feature", "properties": { "fid": 226, "name": "Two Brothers Artisan Brewery", "contact": "4321 North Scottsdale Rd, Scottsdale AZ, (480)378-3001, www.twobrothersbrewing.com\/, Mon-Thu 11am-10pm, Fri-Sat 11am-11pm, Sun 11am-9pm", "counter": 1 }, "geometry": { "type": "Point", "coordinates": [ -111.93, 33.5 ] } },
{ "type": "Feature", "properties": { "fid": 227, "name": "Oak Creek Brewery and Grill", "contact": "366 Hiway 179, Sedona, AZ, (928)282-3300, Open 11:00am-9:00pm", "counter": 1 }, "geometry": { "type": "Point", "coordinates": [ -111.76, 34.86 ] } },
{ "type": "Feature", "properties": { "fid": 228, "name": "Oak Creek Brewing", "contact": "2050 Yavapai Dr, Sedona AZ, (520)204-1300, Opens Mon-Thu 4:00pm, Fri-Sat Noon", "counter": 1 }, "geometry": { "type": "Point", "coordinates": [ -111.8, 34.87 ] } },
{ "type": "Feature", "properties": { "fid": 229, "name": "Sedona Beer Co", "contact": "465 Jordan Rd, Sedona AZ, (928)862-4148, www.sedonabeerco.com, Thu-Sat 3-10pm, Sun noon-8pm", "counter": 1 }, "geometry": { "type": "Point", "coordinates": [ -111.76, 34.87 ] } },
{ "type": "Feature", "properties": { "fid": 230, "name": "Black Horse Brewery", "contact": "1058 Burton Rd, Show Low AZ, (928)537-9349, Thu-Sat noon-8:00pm", "counter": 1 }, "geometry": { "type": "Point", "coordinates": [ -110.16, 34.29 ] } },
{ "type": "Feature", "properties": { "fid": 231, "name": "Mad Cactus Brewery", "contact": "3514 Kings Court Dr, Sierra Vista AZ, www.madcactusbrewery.com, Planned", "counter": 1 }, "geometry": { "type": "Point", "coordinates": [ -110.25, 31.55 ] } },
{ "type": "Feature", "properties": { "fid": 232, "name": "Barnstar Brewing", "contact": "4050 North Tonto Rd, Skull Valley AZ, (928)442-2337, www.barnstarbrew.com, Sat Noon-5pm", "counter": 1 }, "geometry": { "type": "Point", "coordinates": [ -112.67, 34.61 ] } },
{ "type": "Feature", "properties": { "fid": 233, "name": "Copper Brothel Brewery", "contact": "3112 Highway 83, Sonoita AZ, (520)405-6721, www.copperbrothelbrewery.com, Sun-Thu 11am-9pm, Fri-Sat 11am-11pm", "counter": 1 }, "geometry": { "type": "Point", "coordinates": [ -110.65, 31.67 ] } },
{ "type": "Feature", "properties": { "fid": 234, "name": "Wild Weede Brewery", "contact": "173 West Main St, Springerville AZ, (928)333-4826, Closed? Mon-Sat 5AM-9PM, Sun 6AM-9PM", "counter": 1 }, "geometry": { "type": "Point", "coordinates": [ -109.29, 34.13 ] } },
{ "type": "Feature", "properties": { "fid": 235, "name": "State Forty Eight Brewery", "contact": "13823 West Bell Rd, Surprise AZ, (623)584-1095, www.statefortyeightbrewery.com, Mon-Wed 11am-10pm, Thu-Sat 11am-midnight, Sun 11am-10pm", "counter": 1 }, "geometry": { "type": "Point", "coordinates": [ -112.36, 33.64 ] } },
{ "type": "Feature", "properties": { "fid": 236, "name": "Blasted Barley Beer Co", "contact": "404 South Mill Ave, Tempe AZ, (480)967-5887, www.blastedbarley.com, Mon-Fri 11am-2am, Sat-Sun 10am-2am", "counter": 1 }, "geometry": { "type": "Point", "coordinates": [ -111.94, 33.43 ] } },
{ "type": "Feature", "properties": { "fid": 237, "name": "Cartel Brewery", "contact": "225 West University Dr #103, Tempe AZ, (605)561-2584, www.cartelbrewery.com\/, Tue-Fri 3-10pm, Sat noon-10pm, Sun noon-8pm", "counter": 1 }, "geometry": { "type": "Point", "coordinates": [ -111.94, 33.42 ] } },
{ "type": "Feature", "properties": { "fid": 238, "name": "Elevate your Passion Brewing", "contact": "2209 West 1st St # A107, Tempe AZ, (888)397-2337, www.elevateyourpassionbrewing.com, Call", "counter": 1 }, "geometry": { "type": "Point", "coordinates": [ -111.97, 33.43 ] } },
{ "type": "Feature", "properties": { "fid": 239, "name": "Four Peaks Brewing", "contact": "1340 East Eighth Street #104, Tempe AZ, (480)303-9967, www.fourpeaks.com\/, Open 11:00am-2:00am", "counter": 1 }, "geometry": { "type": "Point", "coordinates": [ -111.92, 33.42 ] } },
{ "type": "Feature", "properties": { "fid": 240, "name": "Four Peaks Brewing - Production Brewery", "contact": "2401 South Wilson St, Tempe AZ, www.fourpeaks.com\/, Open daily 2:00pm-10:00pm", "counter": 1 }, "geometry": { "type": "Point", "coordinates": [ -111.94, 33.4 ] } },
{ "type": "Feature", "properties": { "fid": 241, "name": "Gordon Biersch Brewing", "contact": "420 S Mill Ave #201, Tempe AZ, (602)736-0033, Sun-Mon 11AM-11PM, Tue-Thu 11AM-Midnight, Fri-Sat 11AM-1AM", "counter": 1 }, "geometry": { "type": "Point", "coordinates": [ -111.94, 33.43 ] } },
{ "type": "Feature", "properties": { "fid": 242, "name": "Huss Brewing", "contact": "1520 West Mineral Rd, Tempe AZ, (480)264-7611, www.hussbrewing.com, Mon-Thu 3-8pm, Fri 3-10pm, Sat Noon-10pm, Sun Noon-8pm", "counter": 1 }, "geometry": { "type": "Point", "coordinates": [ -111.96, 33.36 ] } },
{ "type": "Feature", "properties": { "fid": 243, "name": "Mad Hatter Brew Pub", "contact": "502 S. College Ave # 103, Tempe AZ, (480)967-5353, www.madhatterbrewpub.com\/, Mon-Fri 11am-2am, Sat-Sun 10am-2am", "counter": 1 }, "geometry": { "type": "Point", "coordinates": [ -111.94, 33.43 ] } },
{ "type": "Feature", "properties": { "fid": 244, "name": "Pedal Haus Brewery", "contact": "730 South Mill Ave #H102, Tempe AZ, (480)314-2337, www.pedalhausbrewery.com, Sun-Wed 11am-11pm, Thu 11am-midnight, Fri-Sat 11am-1am", "counter": 1 }, "geometry": { "type": "Point", "coordinates": [ -111.94, 33.42 ] } },
{ "type": "Feature", "properties": { "fid": 245, "name": "Shop Beer Co", "contact": "922 West First St, Tempe AZ, (480)747-7316, Call", "counter": 1 }, "geometry": { "type": "Point", "coordinates": [ -111.95, 33.43 ] } },
{ "type": "Feature", "properties": { "fid": 246, "name": "Sleepy Dog Saloon & Brewery", "contact": "1920 East University, Tempe AZ, (480)967-5476, www.sleepydogbrewing.com\/, Sun-Thu 2pm-10pm, Fri-Sat 2pm-Midnight", "counter": 1 }, "geometry": { "type": "Point", "coordinates": [ -111.9, 33.42 ] } },
{ "type": "Feature", "properties": { "fid": 247, "name": "Helldorado Brewing", "contact": "107 East Toughnut St, Tombstone AZ, (520)457-3535, Closed?", "counter": 1 }, "geometry": { "type": "Point", "coordinates": [ -110.07, 31.71 ] } },
{ "type": "Feature", "properties": { "fid": 248, "name": "Tombstone Brewing Co", "contact": "107 East Toughnut St, Tombstone AZ, (520)222-6781, tombstone.beer\/, Open daily 11am-7pm", "counter": 1 }, "geometry": { "type": "Point", "coordinates": [ -110.07, 31.71 ] } },
{ "type": "Feature", "properties": { "fid": 249, "name": "1702 Beer & Pizza - The Address Brewing", "contact": "1702 East Speedway Blvd, Tucson AZ, (520)325-1702, Mon-Fri 11:00am-11:00pm, Sat noon-11:00pm, Sun 11am-9pm", "counter": 1 }, "geometry": { "type": "Point", "coordinates": [ -110.95, 32.24 ] } },
{ "type": "Feature", "properties": { "fid": 250, "name": "1912 Brewing", "contact": "2045 North Forbes Blvd #105, Tucson AZ, (520)256-4851, www.1912brewing.com, Mon-Thu 3-9pm, Fri 1pm-10pm, Sat noon-10pm, Sun noon-6pm", "counter": 1 }, "geometry": { "type": "Point", "coordinates": [ -110.99, 32.25 ] } },
{ "type": "Feature", "properties": { "fid": 251, "name": "Barrio Brewing", "contact": "800 East 16th St, Tucson AZ, (520)791-2739, barriobrewing.com\/, Mon-Wed 11am-10pm, Thu-Sat 11am-Midnight, Sun 11am-9pm, Happy Hour Mon-Fri 4pm-7pm", "counter": 1 }, "geometry": { "type": "Point", "coordinates": [ -110.96, 32.21 ] } },
{ "type": "Feature", "properties": { "fid": 252, "name": "BJ's Restaurant & Brewhouse", "contact": "4270 North Oracle Road, Tucson AZ, (520)690-1900, Mon-Thu 11am-Midnight, Fri-Sat 11am-1am, Sun 11am-11pm", "counter": 1 }, "geometry": { "type": "Point", "coordinates": [ -110.98, 32.28 ] } },
{ "type": "Feature", "properties": { "fid": 253, "name": "Black Rock Brewers", "contact": "1664 South Research Look #200, Tucson AZ, (520)207-3203, blackrockbrewers.com\/, Tue-Fri 2:30pm-9:00pm, Sat noon-9:00pm", "counter": 1 }, "geometry": { "type": "Point", "coordinates": [ -110.82, 32.2 ] } },
{ "type": "Feature", "properties": { "fid": 254, "name": "Borderlands Brewing", "contact": "119 East Toole Ave, Tucson AZ, (520)261-8773, www.borderlandsbrewing.com\/, Wed 4:00pm-7:00pm, Fri 4:00pm-7:00pm, Sat noon-4:00pm", "counter": 1 }, "geometry": { "type": "Point", "coordinates": [ -110.97, 32.23 ] } },
{ "type": "Feature", "properties": { "fid": 255, "name": "Button Brew House", "contact": "6800 North Camino Martin #160, Tucson AZ, (520)268.8543, www.buttonbrew.com\/, Mon-Thu 3-8pm, Fri 2-10pm, Sat noon-10pm, Sun 11am-6pm", "counter": 1 }, "geometry": { "type": "Point", "coordinates": [ -111.06, 32.33 ] } },
{ "type": "Feature", "properties": { "fid": 256, "name": "Copper Mine Brewing", "contact": "3455 South Palo Verde Rd, Tucson AZ, (520)333-6140, www.copperminebrewing.com, Tue-Thu 4-9pm, Fri 3-9pm, Sat noon-9pm, Sun noon-5pm", "counter": 1 }, "geometry": { "type": "Point", "coordinates": [ -110.92, 32.18 ] } },
{ "type": "Feature", "properties": { "fid": 257, "name": "Corbett Brewing", "contact": "309 E 7th St, Tucson AZ, Tue-Thu 4-10pm, Fri 4pm-midnight, Sat noon-midnight, Sun noon-8pm", "counter": 1 }, "geometry": { "type": "Point", "coordinates": [ -110.97, 32.23 ] } },
{ "type": "Feature", "properties": { "fid": 258, "name": "Crooked Tooth Brewing", "contact": "228 East 6th St, Tucson AZ, (520)444-5305, www.crookedtoothbrewing.com, Mon-Wed 3-10pm, Thu 3pm-midnight, Fri-Sat noon-midnight, Sun noon-10pm", "counter": 1 }, "geometry": { "type": "Point", "coordinates": [ -110.97, 32.23 ] } },
{ "type": "Feature", "properties": { "fid": 259, "name": "Dillinger Brewing", "contact": "3895 North Oracle Rd, Tucson AZ, (520)207-2312, www.dillingerbrewing.com, Mon-Thu 2-9pm, Fri 2-11pm, Sat 11am-11pm, Sun 11am-9pm", "counter": 1 }, "geometry": { "type": "Point", "coordinates": [ -110.98, 32.28 ] } },
{ "type": "Feature", "properties": { "fid": 260, "name": "Dragoon Brewing", "contact": "1859 West Grant Road, Tucson AZ, (520)329-3606, dragoonbrewing.com\/, Mon-Fri 3-10pm, Sat noon-10pm, Sun noon-5pm", "counter": 1 }, "geometry": { "type": "Point", "coordinates": [ -111.01, 32.25 ] } },
{ "type": "Feature", "properties": { "fid": 261, "name": "Gentle Ben's Brewing", "contact": "865 E. University Blvd, Tucson AZ, (520)624-4177, www.gentlebens.com\/, Mon-Sat 11am-10pm, Sun Noon-10pm", "counter": 1 }, "geometry": { "type": "Point", "coordinates": [ -110.96, 32.23 ] } },
{ "type": "Feature", "properties": { "fid": 262, "name": "Green Feet Brewing", "contact": "3669 East 44th St, Tucson AZ, (520)977-1691, www.greenfeetbrewing.com\/, Wed-Fri 4-8pm, Sat 2-8pm", "counter": 1 }, "geometry": { "type": "Point", "coordinates": [ -110.91, 32.19 ] } },
{ "type": "Feature", "properties": { "fid": 263, "name": "Harbottle", "contact": "3820 S Palo Verde Rd, Tucson AZ, (520)499-2518, fluxbrewing.com\/, Mon-Wed 1pm-7pm, Thu-Fri 1pm-9pm, Sat-Sun noon-7pm", "counter": 1 }, "geometry": { "type": "Point", "coordinates": [ -110.92, 32.18 ] } },
{ "type": "Feature", "properties": { "fid": 264, "name": "Iron John's Brewing Co", "contact": "245 South Plumer Ave #27, Tucson AZ, (205)737-4766, ironjohnsbrewing.com\/, Thu-Sat 11:00am-6:00pm", "counter": 1 }, "geometry": { "type": "Point", "coordinates": [ -110.94, 32.22 ] } },
{ "type": "Feature", "properties": { "fid": 265, "name": "Jalopys Grillville & Micro Brewery", "contact": "4230 North Oracle Road #100, Tucson AZ, (520)243-9199, www.jalopysgrill.com\/, Call", "counter": 1 }, "geometry": { "type": "Point", "coordinates": [ -110.98, 32.28 ] } },
{ "type": "Feature", "properties": { "fid": 266, "name": "Nimbus Brewing", "contact": "3850 East 44th St #138, Tucson AZ, (520)745-9175, Mon-Thu 11am-11pm, Fri-Sat 11am-1am, Sun Noon-9pm", "counter": 1 }, "geometry": { "type": "Point", "coordinates": [ -110.91, 32.19 ] } },
{ "type": "Feature", "properties": { "fid": 267, "name": "Public Brewhouse", "contact": "209 North Hoff Ave, Tucson AZ, (520)775-2337, www.publicbrewhouse.com, Mon-Thu 4-11pm, Fri 4pm-1am, Sat 2pm-1am, Sun noon-8pm", "counter": 1 }, "geometry": { "type": "Point", "coordinates": [ -110.96, 32.22 ] } },
{ "type": "Feature", "properties": { "fid": 268, "name": "Pueblo Vida Brewing", "contact": "115 East Broadway Blvd, Tucson AZ, (520)623-7168, www.pueblovidabrewing.com\/, Mon-Thu 4pm-10pm, Fri 2pm-11pm, Sat noon-11pm, Sun noon-8pm", "counter": 1 }, "geometry": { "type": "Point", "coordinates": [ -110.97, 32.22 ] } },
{ "type": "Feature", "properties": { "fid": 269, "name": "Sentinel Peak Brewing", "contact": "4746 East Grant Road, Tucson AZ, (520)777-9456, www.sentinelpeakbrewing.com\/, Tue-Thu 11am-9pm, Fri-Sat 11am-10:30pm, Sun 11am-8pm", "counter": 1 }, "geometry": { "type": "Point", "coordinates": [ -110.96, 32.25 ] } },
{ "type": "Feature", "properties": { "fid": 270, "name": "Ten 55 Brewing", "contact": "3810 East 44th St, Tucson AZ, (520)461-8073, www.1055brewing.com\/, Sat 2-7pm", "counter": 1 }, "geometry": { "type": "Point", "coordinates": [ -110.91, 32.19 ] } },
{ "type": "Feature", "properties": { "fid": 271, "name": "Thunder Canyon Brewery", "contact": "7401 North La Cholla Boulevard, Tucson AZ, (520)797-2652, www.thundercanyonbrewery.com\/, (Closed?)Daily 11:00am", "counter": 1 }, "geometry": { "type": "Point", "coordinates": [ -111.01, 32.34 ] } },
{ "type": "Feature", "properties": { "fid": 272, "name": "Thunder Canyon Brewery", "contact": "220 East Broadway Blvd #1, Tucson AZ, (520)396-3480, www.thundercanyonbrewery.com\/, Sun-Thu 11am-11pm, Fri-Sat 11am-2am", "counter": 1 }, "geometry": { "type": "Point", "coordinates": [ -110.97, 32.22 ] } },
{ "type": "Feature", "properties": { "fid": 273, "name": "Tucson Brewing and Trading Co", "contact": "9212 East Tanque Verde Road #105, Tucson AZ, (520)760-7322, Planned", "counter": 1 }, "geometry": { "type": "Point", "coordinates": [ -110.8, 32.26 ] } },
{ "type": "Feature", "properties": { "fid": 274, "name": "1912 Brewing", "contact": "9614 South Placita de la Casita, Vail AZ, 1912brewing.com, Planned", "counter": 1 }, "geometry": { "type": "Point", "coordinates": [ -110.7, 32.0 ] } },
{ "type": "Feature", "properties": { "fid": 275, "name": "Grand Canyon Brewery", "contact": "233 West Route 66, Williams AZ, (928)635-2168, www.grandcanyonbrewing.com\/, Open daily 11:00am-10:00pm", "counter": 1 }, "geometry": { "type": "Point", "coordinates": [ -112.19, 35.25 ] } },
{ "type": "Feature", "properties": { "fid": 276, "name": "Prison Hill Brewing Co", "contact": "278 South Main St, Yuma AZ, (928)276-4001, www.facebook.com\/Prisonhillbrewco, Sun-Thu 11:00am-10:00pm, Fri-Sat 11:00am-2:00am", "counter": 1 }, "geometry": { "type": "Point", "coordinates": [ -114.62, 32.72 ] } },
{ "type": "Feature", "properties": { "fid": 277, "name": "Yuma Brewing", "contact": "278 South Main St, Yuma AZ, www.yumabrewingcompany.com, Planned", "counter": 1 }, "geometry": { "type": "Point", "coordinates": [ -114.62, 32.72 ] } },
{ "type": "Feature", "properties": { "fid": 278, "name": "Slate Rock Brewing", "contact": "113 South Main St, Amity AR, (870)342-5545, www.slaterockbrewing.com, Fri-Sat 11am-7pm, Sun 2-7pm", "counter": 1 }, "geometry": { "type": "Point", "coordinates": [ -93.46, 34.27 ] } },
{ "type": "Feature", "properties": { "fid": 279, "name": "Bentonville Brewing", "contact": "1000-A SE 5th St, Bentonville AR, (479)464-0150, www.bentonvillebrewing.com, Wed 4-10pm, Thu-Fri 4-11pm, Sat 2-11pm, Sun 2-9pm", "counter": 1 }, "geometry": { "type": "Point", "coordinates": [ -94.2, 36.37 ] } },
{ "type": "Feature", "properties": { "fid": 280, "name": "Bike Rack Brewing Co", "contact": "410 SW A St, Bentonville AR, (479)268-6648, bikerackbrewing.com\/, Tue-Wed 5-10pm, Thu-Fri 3-10pm, Sat Noon-10pm, Sun Noon-5pm", "counter": 1 }, "geometry": { "type": "Point", "coordinates": [ -94.21, 36.37 ] } },
{ "type": "Feature", "properties": { "fid": 281, "name": "Gravity Brew Works", "contact": "11512 Highway 14 East, Big Flat AR, (870)448-2077, www.gravitybrewworks.com, Thu-Sat Noon-8pm", "counter": 1 }, "geometry": { "type": "Point", "coordinates": [ -92.4, 35.97 ] } },
{ "type": "Feature", "properties": { "fid": 282, "name": "Bubba Brews Sports Pub & Grill", "contact": "8091 Airport Rd, Bonnerdale AR, (870)356-4001, beachislandmarina.com\/bubbabrews.html, Open daily", "counter": 1 }, "geometry": { "type": "Point", "coordinates": [ -93.33, 34.41 ] } },
{ "type": "Feature", "properties": { "fid": 283, "name": "Gotahold Brewing", "contact": "168 B Frontage Rd, Eureka Springs AR, (802)356-9163, Call", "counter": 1 }, "geometry": { "type": "Point", "coordinates": [ -93.74, 36.38 ] } },
{ "type": "Feature", "properties": { "fid": 284, "name": "Apple Blossom Brewing", "contact": "1550 East Zion Rd, Fayetteville AR, (479)287-4344, appleblossombrewing.com\/, Mon-Tue 11:00am-9:00pm, Wed-Sat 11:00am-10:00pm, Sun 11:00am-8:00pm", "counter": 1 }, "geometry": { "type": "Point", "coordinates": [ -94.12, 36.13 ] } },
{ "type": "Feature", "properties": { "fid": 285, "name": "Columbus House Brewery", "contact": "701 West North St, Fayetteville AR, (479)935-3752, Mon-Thu 4:00pm-10:00pm, Fri 4:00pm-midnight, Sat noon-midnight, Sun 1:00pm-8:00pm", "counter": 1 }, "geometry": { "type": "Point", "coordinates": [ -94.17, 36.08 ] } },
{ "type": "Feature", "properties": { "fid": 286, "name": "Dark Hills Brewery", "contact": "Fayetteville AR, Planned", "counter": 1 }, "geometry": { "type": "Point", "coordinates": [ -94.16, 36.06 ] } },
{ "type": "Feature", "properties": { "fid": 287, "name": "Fossil Cove Brewing", "contact": "1946 North Birch Ave, Fayetteville AR, (479)445-6050, fossilcovebrewing.com\/, Tue-Thu 4:00pm-10:00pm, Fri 4:00pm-11:00pm, Sat 2:00pm-11:00pm, Sun 2:00pm-10:00pm", "counter": 1 }, "geometry": { "type": "Point", "coordinates": [ -94.17, 36.09 ] } },
{ "type": "Feature", "properties": { "fid": 288, "name": "Tanglewood Branch Beer Co.", "contact": "1431 South School Ave, Fayetteville AR, (479)856-6500, www.tanglewoodbranch.com\/, Mon-Sat at 11:00am, Sun at 5:00pm", "counter": 1 }, "geometry": { "type": "Point", "coordinates": [ -94.16, 36.05 ] } },
{ "type": "Feature", "properties": { "fid": 289, "name": "Tiny Tim's Pizza & West Mountain Brewing", "contact": "21 West Mountain St, Fayetteville AR, (479)521-5551, Mon-Thu 10:00am-10:00pm, Fri-Sat 10:00am-11:00pm, Sun 10:00am-10:00pm", "counter": 1 }, "geometry": { "type": "Point", "coordinates": [ -94.16, 36.06 ] } },
{ "type": "Feature", "properties": { "fid": 290, "name": "Fort Smith Brewing", "contact": "7500 Fort Chaffee Blvd, Fort Smith AR, (479)242-3722, www.fsbrewco.com, Mon-Thu 5-10pm, Fri-Sun noon-10pm", "counter": 1 }, "geometry": { "type": "Point", "coordinates": [ -94.3, 35.31 ] } },
{ "type": "Feature", "properties": { "fid": 291, "name": "Brick Oven Pizza Co", "contact": "814 Highway 62 65 N #10, Harrison AR, (870)741-0012, www.brickovenpizzacompany.com\/Brick-and-Forge, Sun-Thu 11am-10pm, Fri-Sat 11am-11pm", "counter": 1 }, "geometry": { "type": "Point", "coordinates": [ -93.12, 36.25 ] } },
{ "type": "Feature", "properties": { "fid": 292, "name": "Superior Bathhouse Brewery", "contact": "329 Central Ave, Hot Springs AR, (501)624-2337, www.superiorbathhouse.com\/, Open daily at 11:00am", "counter": 1 }, "geometry": { "type": "Point", "coordinates": [ -93.05, 34.51 ] } },
{ "type": "Feature", "properties": { "fid": 293, "name": "SQZBX Brewery & Pizza Joint", "contact": "236 Ouachita Ave, Hot Springs AR, (501)609-0609, www.sqzbx.com, Sun-Thu 11am-9pm, Fri-Sat 11am-10pm", "counter": 1 }, "geometry": { "type": "Point", "coordinates": [ -93.06, 34.51 ] } },
{ "type": "Feature", "properties": { "fid": 294, "name": "Blue Canoe Brewing Co", "contact": "425 East Third St, Little Rock AR, (501)492-9378, bluecanoebrewco.com\/, Thu 5-9pm, Fri 5-10pm, Sat noon-10pm, Sun noon-8pm", "counter": 1 }, "geometry": { "type": "Point", "coordinates": [ -92.27, 34.75 ] } },
{ "type": "Feature", "properties": { "fid": 295, "name": "Boscos Little Rock Brewing", "contact": "500 President Clinton Ave, Little Rock AR, (501)907-1881, Mon-Thu 11:00am-11:00pm, Fri-Sat 1:00am-Midnight, Sun 10:30am-10:00pm", "counter": 1 }, "geometry": { "type": "Point", "coordinates": [ -92.27, 34.75 ] } },
{ "type": "Feature", "properties": { "fid": 296, "name": "Damgoode's River Market Brewpub", "contact": "500 President Clinton Ave, Little Rock AR, (501)664-2239, www.damgoodpies.com, Call", "counter": 1 }, "geometry": { "type": "Point", "coordinates": [ -92.27, 34.75 ] } },
{ "type": "Feature", "properties": { "fid": 297, "name": "Flyway Brewing", "contact": "700 East 9th St #1, Little Rock AR, (501)350-8868 or (501)920-9291, www.flywaybrewing.blogspot.com\/, Call", "counter": 1 }, "geometry": { "type": "Point", "coordinates": [ -92.26, 34.74 ] } },
{ "type": "Feature", "properties": { "fid": 298, "name": "Lost Forty Brewing", "contact": "501 Byrd St, Little Rock AR, (501)319-7335, Wed-Sun 11am-9pm", "counter": 1 }, "geometry": { "type": "Point", "coordinates": [ -92.26, 34.74 ] } },
{ "type": "Feature", "properties": { "fid": 299, "name": "Rebel Kettle Brewing", "contact": "822 East 6th St, Little Rock AR, (501)374-2791, www.rebelkettle.com, Tue-Thu 11am-10pm, Fri-Sat 11am-11pm, Sun noon-6pm", "counter": 1 }, "geometry": { "type": "Point", "coordinates": [ -92.26, 34.74 ] } },
{ "type": "Feature", "properties": { "fid": 300, "name": "Refined Ale Brewery", "contact": "2221 Cedar Street, Little Rock AR, (501)280-0556, www.refinedale.com\/, Call", "counter": 1 }, "geometry": { "type": "Point", "coordinates": [ -92.32, 34.73 ] } },
{ "type": "Feature", "properties": { "fid": 301, "name": "Stones Throw Brewing", "contact": "402 East 9th St, Little Rock AR, (501)244-9154, www.stonesthrowbeer.com\/, Tue-Thu 4:00-9:00pm, Fri 4-10pm, Sat noon-9:00pm, Sun Noon-6:00pm", "counter": 1 }, "geometry": { "type": "Point", "coordinates": [ -92.27, 34.74 ] } },
{ "type": "Feature", "properties": { "fid": 302, "name": "Vino's Brewpub", "contact": "923 W Seventh St, Little Rock AR, (501)375-8466, Mon-Wed 11AM-10PM, Thu-Fri 11AM-11PM, Sat noon-10pm, Sun 11am-9PM", "counter": 1 }, "geometry": { "type": "Point", "coordinates": [ -92.28, 34.74 ] } },
{ "type": "Feature", "properties": { "fid": 303, "name": "BensBrew, LLC", "contact": "10618 Ervin McGarrah Road, Lowell AR, (479)644-4601, Call", "counter": 1 }, "geometry": { "type": "Point", "coordinates": [ -94.06, 36.28 ] } },
{ "type": "Feature", "properties": { "fid": 304, "name": "Dark Hills Brewery", "contact": "12577 Blueberry Lane, Lowell AR, (479)283-6365, www.darkhillsbrew.com\/, Call", "counter": 1 }, "geometry": { "type": "Point", "coordinates": [ -94.05, 36.24 ] } },
{ "type": "Feature", "properties": { "fid": 305, "name": "Rapp's Barren Brewing", "contact": "1343 East 9th St, Mountain Home AR, (870)424-7288, www.rappsbarrenbrewing.com, Thu 5-9pm, Fri 5-10pm, Sat noon-10pm", "counter": 1 }, "geometry": { "type": "Point", "coordinates": [ -92.36, 36.33 ] } },
{ "type": "Feature", "properties": { "fid": 306, "name": "Norfork Brewing", "contact": "13980 Highway 5 S, Norfork AR, (918)706-6082, nfbrew.com\/, Fri 4-10pm, Sat noon-10pm", "counter": 1 }, "geometry": { "type": "Point", "coordinates": [ -92.29, 36.21 ] } },
{ "type": "Feature", "properties": { "fid": 307, "name": "Diamond Bear Brewing", "contact": "600 N. Broadway St, North Little Rock AR, (501)708-2739, Tue-Thu 11am-9pm, Fri-Sat 11am-11pm, Sun 11am-9pm; Tours Sat & Sun 3pm", "counter": 1 }, "geometry": { "type": "Point", "coordinates": [ -92.27, 34.76 ] } },
{ "type": "Feature", "properties": { "fid": 308, "name": "Flyway Brewing Company", "contact": "314 Maple St, North Little Rock AR, (501)812-3192, www.flywaybrewing.com\/, Mon-Thu 4-9pm, Fri-Sat noon-10pm, Sun noon-9pm", "counter": 1 }, "geometry": { "type": "Point", "coordinates": [ -92.27, 34.76 ] } },
{ "type": "Feature", "properties": { "fid": 309, "name": "Brick Oven Pizza Co", "contact": "2410 Linwood Dr, Paragould AR, (870)236-4200, www.brickovenpizzacompany.com\/Locations\/Paragould\/, Sun-Thu 11am-10pm, Fri-Sat 11am-11pm", "counter": 1 }, "geometry": { "type": "Point", "coordinates": [ -90.52, 36.03 ] } },
{ "type": "Feature", "properties": { "fid": 310, "name": "Prestonrose Farm and Brewing Co", "contact": "201 Saint Louis Valley Road, Paris AR, (479)847-5174, prestonrose.squarespace.com\/, Fri-Sat 4-8pm, Sun noon-4pm", "counter": 1 }, "geometry": { "type": "Point", "coordinates": [ -93.56, 35.29 ] } },
{ "type": "Feature", "properties": { "fid": 311, "name": "Hawk Moth Brewery & Beer Parlor", "contact": "710 North 2nd St, Rogers AR, (479)616-4800, www.hawkmothbrewing.com, Thu-Fri 4-10pm, Sat 1-10pm, Sun 1-6pm", "counter": 1 }, "geometry": { "type": "Point", "coordinates": [ -94.12, 36.34 ] } },
{ "type": "Feature", "properties": { "fid": 312, "name": "Natural State Beer Co", "contact": "5214 West Village Parkway #140, Rogers AR, (479)715-6022, naturalstatebeercompany.com, Call", "counter": 1 }, "geometry": { "type": "Point", "coordinates": [ -94.19, 36.32 ] } },
{ "type": "Feature", "properties": { "fid": 313, "name": "New Province Brewing", "contact": "1310 West Hudson Rd, Rogers AR, (479)246-0479, www.newprovincebrewing.com\/, Wed-Fri 3-10pm, Sat noon-10pm, Sun noon-9pm, Mon 3-10pm", "counter": 1 }, "geometry": { "type": "Point", "coordinates": [ -94.13, 36.36 ] } },
{ "type": "Feature", "properties": { "fid": 314, "name": "Ozark Beer Co", "contact": "109 North Arkansas St, Rogers AR, (479)636-2337, www.ozarkbeercompany.com\/, Sat 3:00pm-7:00pm, Sun 2:00pm-6:00pm", "counter": 1 }, "geometry": { "type": "Point", "coordinates": [ -94.11, 36.33 ] } },
{ "type": "Feature", "properties": { "fid": 315, "name": "Rendezvous Junction Brewing", "contact": "2001 South Bellview Rd #2, Rogers AR, (479)381-7501, www.rendezvousjunction.com, Mon-Thu 11am-10pm, Fri-Sat 11am-11pm", "counter": 1 }, "geometry": { "type": "Point", "coordinates": [ -94.17, 36.31 ] } },
{ "type": "Feature", "properties": { "fid": 316, "name": "Saddlebock Brewery", "contact": "18244 Habberton Road, Springdale AR, (479)419-9969 or (479)422-1797, www.saddlebock.com\/, Mon-Thu 2-9pm, Fri-Sun Noon-9pm", "counter": 1 }, "geometry": { "type": "Point", "coordinates": [ -94.06, 36.13 ] } },
{ "type": "Feature", "properties": { "fid": 317, "name": "Core Brewing and Distilling", "contact": "2470 Lowell Road #A3, Springdale AR, (479)879-2469, www.corebeer.com\/, Mon-Fri 3-9pm, Sat-Sun Noon-9pm", "counter": 1 }, "geometry": { "type": "Point", "coordinates": [ -94.13, 36.21 ] } },
{ "type": "Feature", "properties": { "fid": 318, "name": "Jergensen Brewing", "contact": "11641 Rancho Road, Adelanto CA, (760)246-4843, Closed", "counter": 1 }, "geometry": { "type": "Point", "coordinates": [ -117.41, 34.56 ] } },
{ "type": "Feature", "properties": { "fid": 319, "name": "Ladyface Alehouse & Brasserie", "contact": "29281 Agoura Road, Agoura Hills CA, (818)477-4566, Mon-Sat 11:30am-midnight, Sun 11:30am-10:00pm; Happy Hour M-F 3-6pm", "counter": 1 }, "geometry": { "type": "Point", "coordinates": [ -118.76, 34.14 ] } },
{ "type": "Feature", "properties": { "fid": 320, "name": "The LAB Brewing Co", "contact": "30105 Agoura Road, Agoura Hills CA, (818)735-0091, www.labbrewingco.com\/, Open Daily @ 11am", "counter": 1 }, "geometry": { "type": "Point", "coordinates": [ -118.78, 34.15 ] } },
{ "type": "Feature", "properties": { "fid": 321, "name": "Faction Brewing", "contact": "2501 Monarch St, Alameda CA, (510)523-2739, www.factionbrewing.com\/, Wed-Sat noon-7:00pm, Sun noon-5:00pm", "counter": 1 }, "geometry": { "type": "Point", "coordinates": [ -122.31, 37.79 ] } },
{ "type": "Feature", "properties": { "fid": 322, "name": "Alameda Island Brewing", "contact": "1716 Park St, Alameda CA, (510)921-4860, www.alamedaislandbrewingcompany.com, Wed-Thu 4:00pm-8:00pm, Fri 2:00pm-8:00pm, Sat 11:00am-8:00pm, Sun noon-6:00pm", "counter": 1 }, "geometry": { "type": "Point", "coordinates": [ -122.24, 37.77 ] } },
{ "type": "Feature", "properties": { "fid": 323, "name": "Almanac Beer Co", "contact": "651B W Tower Ave, Alameda CA, (415)992-3438, almanacbeer.com\/, Mon-Sat noon-9pm, Sun noon-6pm", "counter": 1 }, "geometry": { "type": "Point", "coordinates": [ -122.3, 37.78 ] } },
{ "type": "Feature", "properties": { "fid": 324, "name": "California Brewing", "contact": "Alhambra CA, (626)943-8430, Closed, Now in Redding, (530)526-4686", "counter": 1 }, "geometry": { "type": "Point", "coordinates": [ -118.13, 34.09 ] } },
{ "type": "Feature", "properties": { "fid": 325, "name": "Stadium Brewing", "contact": "26731-C Aliso Creek Road, Aliso Viejo CA, (949)448-9611, Mon-Thu 11:00am-Midnight, Fri-Sat 11:00am-2:00am", "counter": 1 }, "geometry": { "type": "Point", "coordinates": [ -117.72, 33.57 ] } },
{ "type": "Feature", "properties": { "fid": 326, "name": "Alpine Beer Company", "contact": "2351 Alpine Boulevard, Alpine CA, (619)445-2337, www.alpinebrewing.com\/, Tue-Thu 11am-10pm, Fri-Sat 11am-Midnight, Sun Noon-9pm", "counter": 1 }, "geometry": { "type": "Point", "coordinates": [ -116.76, 32.84 ] } },
{ "type": "Feature", "properties": { "fid": 327, "name": "Dr. Jekyll's", "contact": "550 Chaparral Court, Altadena CA, (310)273-8339, www.drjekylls.com, Call", "counter": 1 }, "geometry": { "type": "Point", "coordinates": [ -118.15, 34.21 ] } },
{ "type": "Feature", "properties": { "fid": 328, "name": "Junction Brewery & Grill", "contact": "110 West American Canyon Rd, American Canyon CA, (707)649-2285, www.junctionbreweryandgrill.com, Sun-Thu 11:30am-10pm, Fri-Sat 11:30am-midnight", "counter": 1 }, "geometry": { "type": "Point", "coordinates": [ -122.25, 38.17 ] } },
{ "type": "Feature", "properties": { "fid": 329, "name": "All American Ale Works", "contact": "5120 East La Palma Ave #103, Anaheim CA, (657)549-2140, www.all-americanaleworks.com, Mon-Thu 4-9pm, Fri 2-11pm, Sat noon-11pm, Sundnoon-8pm", "counter": 1 }, "geometry": { "type": "Point", "coordinates": [ -117.81, 33.86 ] } },
{ "type": "Feature", "properties": { "fid": 330, "name": "Anaheim Brewery", "contact": "336 South Anaheim Blvd, Anaheim CA, (714)780-1888, www.anaheimbrew.com\/, Tue-Thu 5pm-9pm, Fri 4pm-9pm, Sat 11am-9pm, Sun 11am-6pm", "counter": 1 }, "geometry": { "type": "Point", "coordinates": [ -117.91, 33.83 ] } },
{ "type": "Feature", "properties": { "fid": 331, "name": "Ballast Point Brewing", "contact": "1540 South Disneyland Dr #201, Anaheim CA, (714)687-9813, www.ballastpoint.com\/, Call", "counter": 1 }, "geometry": { "type": "Point", "coordinates": [ -117.92, 33.81 ] } },
{ "type": "Feature", "properties": { "fid": 332, "name": "Black Magic Brewing", "contact": "731 South Weir Canyon Rd, Anaheim CA, (949)274-3626, Call", "counter": 1 }, "geometry": { "type": "Point", "coordinates": [ -117.74, 33.86 ] } },
{ "type": "Feature", "properties": { "fid": 333, "name": "Bottle Logic Brewing", "contact": "1072 North Armando St, Anaheim CA, (714)660-2537, bottlelogic.com\/, Fri 4:00pm-11:00pm, Sat noon-11:00pm, Sun noon-6:00pm", "counter": 1 }, "geometry": { "type": "Point", "coordinates": [ -117.86, 33.85 ] } },
{ "type": "Feature", "properties": { "fid": 334, "name": "Brewery X", "contact": "3191 East La Palma Ave, Anaheim CA, (657)999-1500, www.brewery-x.com, Call", "counter": 1 }, "geometry": { "type": "Point", "coordinates": [ -117.85, 33.85 ] } },
{ "type": "Feature", "properties": { "fid": 335, "name": "Brewheim Brewing", "contact": "1931 East Wright Circle, Anaheim CA, (714)453-4346, www.brewheim.com, Mon-Thu 3-10pm, Fri 3pm-midnight, Sat noon-midnight, Sun noon-8pm", "counter": 1 }, "geometry": { "type": "Point", "coordinates": [ -117.89, 33.81 ] } },
{ "type": "Feature", "properties": { "fid": 336, "name": "Bruery Terreux", "contact": "1174 North Grove St, Anaheim CA, (714)996-6258, www.brueryterreux.com\/, Open daily noon-10:00pm", "counter": 1 }, "geometry": { "type": "Point", "coordinates": [ -117.84, 33.86 ] } },
{ "type": "Feature", "properties": { "fid": 337, "name": "Golden Road Brewing", "contact": "2210 East Orangewood Ave, Anaheim CA, (714)912-4015, Sun-Wed 11am-midnight, Thu-Sat 11am-2am", "counter": 1 }, "geometry": { "type": "Point", "coordinates": [ -117.89, 33.8 ] } },
{ "type": "Feature", "properties": { "fid": 338, "name": "Hoparazzi Brewing Co", "contact": "2910-D East La Palma Ave, Anaheim CA, (714)204-0655, hoparazzibrewing.com\/, Fri 4pm-10pm, Sat 2pm-10pm, Sun 1pm-7pm", "counter": 1 }, "geometry": { "type": "Point", "coordinates": [ -117.91, 33.84 ] } },
{ "type": "Feature", "properties": { "fid": 339, "name": "JT Schmid's Restaurant & Brewery", "contact": "2610 East Katella Ave, Anaheim CA, (714)634-9200, Mon-Fri 11AM-Midnight, Sat-Sun Noon-Midnight", "counter": 1 }, "geometry": { "type": "Point", "coordinates": [ -117.88, 33.81 ] } },
{ "type": "Feature", "properties": { "fid": 340, "name": "Legends Craft Brewery", "contact": "1301 South Lewis St, Anaheim CA, (888)327-0202, www.legendsbeer.com, Tue-Thu 4-10pm, Fri 4pm-midnight, Sat noon-midnight, Sun noon-8pm", "counter": 1 }, "geometry": { "type": "Point", "coordinates": [ -117.9, 33.82 ] } },
{ "type": "Feature", "properties": { "fid": 341, "name": "Noble Ale Works", "contact": "1621-B South Sinclair St, Anaheim CA, (714)634-2739, www.noblebrew.com\/, Wed-Thu 4-10pm, Fri-Sat 4pm-Late, Sun Noon-6pm", "counter": 1 }, "geometry": { "type": "Point", "coordinates": [ -117.88, 33.81 ] } },
{ "type": "Feature", "properties": { "fid": 342, "name": "Phantom Ales & Cellar", "contact": "1211 North Las Brisas St, Anaheim CA, (714)630-9463, www.phantomales.com, Mon-Tue 11am-7pm, Wed 11am-9pm, Thu 11am-10pm, Fri-Sat 11am-11pm, Sun 11am-7pm", "counter": 1 }, "geometry": { "type": "Point", "coordinates": [ -117.87, 33.85 ] } },
{ "type": "Feature", "properties": { "fid": 343, "name": "Shire Reeve Brewing", "contact": "2910 East La Palma Ave, Anaheim CA, (951)256-4973, Call", "counter": 1 }, "geometry": { "type": "Point", "coordinates": [ -117.86, 33.85 ] } },
{ "type": "Feature", "properties": { "fid": 344, "name": "Towne Park Brew Co", "contact": "1566 West Lincoln Ave, Anaheim CA, (714)844-2492, towneparkbrew.com\/, Mon-Fri 4pm-midnight, Sat-Sun 10am-midnight", "counter": 1 }, "geometry": { "type": "Point", "coordinates": [ -117.94, 33.83 ] } },
{ "type": "Feature", "properties": { "fid": 345, "name": "Unsung Brewing", "contact": "500-B South Anaheim Blvd, Anaheim CA, (714)406-3098, www.unsungbrewing.com, Tue-Thu 4-10pm, Fri 3-11pm, Sat 11am-11pm, Sun noon-6pm", "counter": 1 }, "geometry": { "type": "Point", "coordinates": [ -117.9, 33.81 ] } },
{ "type": "Feature", "properties": { "fid": 346, "name": "California Brewing Company", "contact": "9348-H Deschutes Rd, Anderson CA, (530)222-2739, californiabrewingcompany.com\/, Mon-Thu 5:00pm-9:00pm, Fri-Sat 4:00pm-10:00pm", "counter": 1 }, "geometry": { "type": "Point", "coordinates": [ -122.24, 40.47 ] } },
{ "type": "Feature", "properties": { "fid": 347, "name": "Schooner's Grille & Brewery", "contact": "4250 Lone Tree Way, Antioch CA, (925)776-1800, Mon-Thu 11am-10pm, Fri-Sat 11am-Midnight, Sun 10am-10pm", "counter": 1 }, "geometry": { "type": "Point", "coordinates": [ -121.79, 37.97 ] } },